index;date_collecte;DEP;COMM;ANNEE_DEPOT;CAT_MOA;TYPE_MOA;DENOMINATION_D;SIRET_D;CADASTRE1;CADASTRE2;CADASTRE3;TYPE_EVT;SUPERFICIE_T;NB_LGT_1P;NB_LGT_2P;NB_LGT_3P;NB_LGT_4P;NB_LGT_5P;NB_LGT_6P;NB_LGT_DEMOLIS;NB_LGT_IND_CREES;NB_LGT_COL_CREES;NB_LGT_TOT_CREES;NB_NIV_MAX;NATURE_PROJET;I_PERSONNELLE;I_VENTE;I_LOCATION;I_LGTR_SENIORS;I_LGTR_ETUDIANTS;I_LGTR_TOURISME;I_LGTR_HOTELIERESOC;I_LGTR_SOCIAL;I_LGTR_HANDICAPES;I_LGTR_AUTRE;I_LGTR_AUTRE_LIBELLE;SDP_A1;SDP_B1;SDP_D1;SDP_ E1;SDP_F1;TYPE_OPERATION_CONSTR;PERIODE_DEVRT;DATEREELLE_DECISION_FAV;DATEREELLE_DOC;SDP_E1;DPC;lat;lng;INSEE_COM;IRIS;CODE_IRIS;TYP_IRIS
284;2018-04;13;13001;2017;90;2.0;SARL RAVANASSE;83193632300011;0061MD;0397MD;;2;1727.0;0.0;5.0;8.0;2.0;0.0;0.0;0.0;0.0;15.0;15.0;;1.0;0.0;1.0;0.0;0.0;0.0;0.0;0.0;0.0;0.0;0.0;;0.0;922.0;0.0;0.0;0.0;7.0;2018-04-30;2018-04-19;;;;43.53721999262331;5.412669966655159;13001;0709;130010709;H
2707;2019-08;13;13001;2018;20;2.0;SACOGIVA;30750283100018;0239MD;;;2;12676.0;22.0;50.0;0.0;0.0;0.0;0.0;0.0;0.0;72.0;72.0;4.0;1.0;0.0;0.0;1.0;0.0;0.0;0.0;0.0;0.0;0.0;0.0;;0.0;4797.0;0.0;0.0;0.0;7.0;2019-08-31;2019-08-26;;;;43.53556130763782;5.413541220220209;13001;0709;130010709;H
16373;2017-06;13;13001;2016;32;2.0;SCI AIX RAVANAS;822460002RCS;0522LY;0523LY;;2;7896.0;1.0;17.0;24.0;8.0;0.0;0.0;0.0;0.0;50.0;50.0;3.0;1.0;0.0;1.0;0.0;0.0;0.0;0.0;0.0;0.0;0.0;0.0;;280.0;3315.0;0.0;280.0;0.0;12.0;2017-06-30;2017-06-12;;;;43.536800491593645;5.4153232892449354;13001;0709;130010709;H
52933;2018-08;13;13001;2018;32;2.0;SNC AIX EN PROVENCE BREDASQUE;81319701900017;0064MD;;;2;2445.0;0.0;10.0;8.0;3.0;0.0;0.0;1.0;0.0;21.0;21.0;3.0;1.0;0.0;1.0;0.0;0.0;0.0;0.0;0.0;0.0;0.0;0.0;;307.0;1248.0;0.0;307.0;0.0;12.0;2018-08-31;2018-07-18;;;;43.53449998122383;5.412529988872137;13001;0709;130010709;H
63365;2018-12;13;13001;2018;90;2.0;SACOGIVA;30750283100018;0239MD;;;1;12676.0;22.0;50.0;0.0;0.0;0.0;0.0;0.0;0.0;72.0;72.0;4.0;;0.0;0.0;1.0;0.0;0.0;0.0;0.0;0.0;0.0;0.0;;0.0;4797.0;0.0;0.0;0.0;7.0;2018-12-31;;;;;43.53556130763782;5.413541220220209;13001;0709;130010709;H
79101;2019-06;13;13001;2019;90;2.0;SAS PURE HABITAT;52855985900012;0457LY;;;1;2001.0;0.0;7.0;6.0;0.0;2.0;0.0;0.0;0.0;15.0;15.0;3.0;;0.0;1.0;0.0;0.0;0.0;0.0;0.0;0.0;0.0;0.0;;0.0;1045.0;0.0;0.0;0.0;7.0;2019-06-30;;;;;43.53542002082588;5.4146800308556635;13001;0709;130010709;H
97286;2020-01;13;13001;2020;90;2.0;;;0006CR;0007CR;0054CR;1;20082.0;0.0;86.0;124.0;38.0;0.0;0.0;0.0;0.0;248.0;248.0;;;0.0;1.0;0.0;0.0;0.0;0.0;0.0;0.0;0.0;0.0;;4048.0;14900.0;0.0;4048.0;0.0;12.0;2020-01-31;;;;;43.531100362910415;5.426376543456912;13001;0709;130010709;H
285;2018-04;13;13001;2017;32;2.0;SCCV AIX EN PROVENCE GALICE;;0145IO;0231IO;0308IO;2;13836.0;2.0;36.0;32.0;8.0;0.0;0.0;0.0;0.0;78.0;78.0;;1.0;0.0;1.0;0.0;0.0;0.0;0.0;0.0;0.0;0.0;0.0;;759.0;4776.0;0.0;0.0;0.0;14.0;2018-04-30;2018-04-16;;;;43.528626;5.435149;13001;0606;130010606;H
286;2018-04;13;13001;2017;32;2.0;SCI MMC 2;833742348;0523HA;0528HA;;2;1837.0;0.0;0.0;0.0;0.0;2.0;0.0;0.0;2.0;0.0;2.0;;1.0;0.0;0.0;0.0;0.0;0.0;0.0;0.0;0.0;0.0;0.0;;0.0;273.0;0.0;0.0;0.0;7.0;2018-04-30;2018-04-05;;;;43.48714000707824;5.428640006775339;13001;0902;130010902;H
32401;2017-12;13;13001;2017;10;2.0;HOLDING HB;80838203000010;0210IC;;;2;5960.0;0.0;0.0;0.0;0.0;0.0;0.0;0.0;1.0;0.0;1.0;2.0;2.0;0.0;0.0;0.0;0.0;0.0;0.0;0.0;0.0;0.0;0.0;;0.0;0.0;250.0;;0.0;14.0;;2017-12-28;;0.0;2017/12;43.5067076904184;5.415365083549995;13001;0902;130010902;H
58030;2018-10;13;13001;2018;32;2.0;SCI AXE;44902547700018;0011EX;;;2;805.0;0.0;1.0;3.0;0.0;0.0;0.0;0.0;0.0;4.0;4.0;3.0;2.0;0.0;0.0;1.0;0.0;0.0;0.0;0.0;0.0;0.0;0.0;;29.0;284.0;0.0;0.0;0.0;14.0;2018-10-31;2018-10-31;;;;43.504469;5.4353252;13001;0902;130010902;H
63364;2018-12;13;13001;2018;32;2.0;SCI L'ACACIA;84160070300018;0528HT;;;2;10000.0;0.0;0.0;0.0;0.0;0.0;1.0;0.0;1.0;0.0;1.0;;1.0;0.0;1.0;0.0;0.0;0.0;0.0;0.0;0.0;0.0;0.0;;0.0;256.0;0.0;0.0;0.0;5.0;2018-12-31;2018-12-17;;;;43.4954984;5.4224371;13001;0902;130010902;H
66075;2019-01;13;13001;2017;20;2.0;CROUS AIX MARSEILLE;18130008800661;173EW;47EW;48EW;3;8313.0;296.0;0.0;0.0;1.0;0.0;0.0;0.0;0.0;297.0;297.0;3.0;1.0;0.0;1.0;0.0;0.0;1.0;0.0;0.0;0.0;0.0;0.0;;0.0;6924.0;0.0;0.0;0.0;6.0;2019-01-31;2018-01-20;2019-01-08;;;43.50465812975257;5.453313215792383;13001;0902;130010902;H
87791;2019-10;13;13001;2019;90;2.0;ICADE PROMOTION;78460657600758;0007HW;0008HW;0032HW;1;132898.0;0.0;0.0;0.0;1.0;0.0;0.0;0.0;1.0;0.0;1.0;3.0;;1.0;0.0;0.0;0.0;0.0;0.0;0.0;0.0;0.0;0.0;;0.0;236.0;0.0;0.0;0.0;14.0;2019-10-31;;;;;43.504320016831315;5.422279986283883;13001;0902;130010902;H
94023;2019-12;13;13001;2019;90;2.0;SCCV LUYNES FERRINI;87931298100019;0237HV;0238HV;;1;7560.0;0.0;36.0;40.0;21.0;0.0;0.0;2.0;0.0;97.0;97.0;4.0;;0.0;1.0;0.0;0.0;0.0;0.0;0.0;0.0;0.0;0.0;;434.0;6297.0;0.0;434.0;0.0;12.0;2019-12-31;;;;;43.49045002064224;5.427060018026765;13001;0902;130010902;H
97288;2020-01;13;13001;2020;90;2.0;BOUYGUES IMMOBILIER;562091546;0153EY;0154EY;0270EY;1;4101.0;0.0;0.0;0.0;8.0;0.0;0.0;0.0;8.0;0.0;8.0;2.0;;0.0;1.0;1.0;0.0;0.0;0.0;0.0;0.0;0.0;0.0;;0.0;840.0;0.0;0.0;0.0;7.0;2020-01-31;;;;;43.504469;5.4353252;13001;0902;130010902;H
97289;2020-01;13;13001;2020;90;2.0;BOUYGUES IMMOBILIER;S62091546;0041EY;0042EY;0146EY;1;5381.0;2.0;28.0;33.0;12.0;1.0;0.0;0.0;0.0;76.0;76.0;4.0;;0.0;1.0;1.0;0.0;0.0;0.0;0.0;0.0;0.0;0.0;;0.0;5061.0;0.0;0.0;0.0;7.0;2020-01-31;;;;;43.50057051245419;5.43448070864437;13001;0902;130010902;H
287;2018-04;13;13001;2018;90;2.0;SCA MHSH;834252652;0697OD;;;2;1314.0;0.0;0.0;0.0;1.0;1.0;0.0;0.0;2.0;0.0;2.0;;1.0;0.0;0.0;0.0;0.0;0.0;0.0;0.0;0.0;0.0;0.0;;0.0;257.0;0.0;0.0;0.0;7.0;2018-04-30;2018-04-26;;;;43.529765544569166;5.441621913548323;13001;0202;130010202;H
71072;2019-03;13;13001;2019;90;2.0;SCI PAL IMMO;49289351600012;0120AR;;;1;231.0;0.0;0.0;1.0;0.0;0.0;0.0;0.0;1.0;0.0;1.0;2.0;;1.0;0.0;0.0;0.0;0.0;0.0;0.0;0.0;0.0;0.0;;190.0;39.0;0.0;0.0;0.0;7.0;2019-03-31;;;;;43.52973998222953;5.441340015009672;13001;0202;130010202;H
81875;2019-07;13;13001;2019;30;2.0;SCI PAL IMMO;49289351600012;0120AR;;;2;231.0;0.0;1.0;0.0;0.0;0.0;0.0;0.0;1.0;0.0;1.0;2.0;2.0;1.0;0.0;0.0;0.0;0.0;0.0;0.0;0.0;0.0;0.0;;190.0;66.0;0.0;0.0;0.0;7.0;2019-07-31;2019-07-29;;;;43.52973998222953;5.441340015009672;13001;0202;130010202;H
288;2018-04;13;13002;2017;90;2.0;Societe Francaise d'Habitations Economiques;64201670300208;350CM;425CM;12EW;2;3875.0;0.0;20.0;24.0;4.0;0.0;0.0;0.0;0.0;48.0;48.0;5.0;1.0;0.0;0.0;1.0;0.0;0.0;0.0;0.0;0.0;0.0;0.0;;0.0;3049.0;0.0;0.0;0.0;7.0;2018-04-30;2018-04-03;;;;43.3273577;5.4820148;13002;0106;130020106;H
41194;2018-03;13;13002;2016;42;2.0;REGION PROVENCE ALPES COTE D'AZUR;23130002100012;123CP;83CP;84CP;3;32318.0;0.0;0.0;0.0;5.0;0.0;0.0;0.0;0.0;5.0;5.0;;1.0;0.0;0.0;1.0;0.0;0.0;0.0;0.0;0.0;0.0;0.0;;0.0;524.0;0.0;0.0;0.0;14.0;2018-03-30;2016-12-13;2017-07-24;;;43.33061298436814;5.485287257586572;13002;0106;130020106;H
66083;2019-01;13;13002;2018;32;2.0;;;74DZ;;;2;1326.0;0.0;0.0;0.0;0.0;1.0;0.0;0.0;1.0;0.0;1.0;;1.0;1.0;0.0;0.0;0.0;0.0;0.0;0.0;0.0;0.0;0.0;;0.0;145.0;0.0;0.0;0.0;5.0;2019-01-31;2019-01-03;;;;43.324743471124634;5.4941963435400165;13002;0106;130020106;H
71077;2019-03;13;13002;2019;90;2.0;;;14BW;15BW;293BW;1;10018.0;1.0;45.0;2.0;0.0;0.0;0.0;0.0;0.0;48.0;48.0;5.0;;0.0;1.0;0.0;1.0;0.0;0.0;0.0;0.0;0.0;0.0;;3319.0;2112.0;715.0;0.0;715.0;12.0;2019-03-31;;;;;43.33344688281712;5.487288426354818;13002;0106;130020106;H
76428;2019-05;13;13002;2019;90;2.0;SARL VESTA;43426016200020;249HA;251HA;;1;1423.0;0.0;0.0;0.0;3.0;0.0;0.0;0.0;0.0;3.0;3.0;2.0;;0.0;1.0;0.0;0.0;0.0;0.0;0.0;0.0;0.0;0.0;;128.0;0.0;340.0;0.0;0.0;10.0;2019-05-31;;;;;43.319240009095154;5.476160033362049;13002;0106;130020106;H
79104;2019-06;13;13002;2019;90;2.0;SCI CALUPA;44183994100016;111DR;;;1;1034.0;0.0;0.0;0.0;0.0;1.0;0.0;1.0;1.0;0.0;1.0;2.0;;1.0;0.0;0.0;0.0;0.0;0.0;0.0;0.0;0.0;0.0;;163.0;235.0;0.0;163.0;0.0;12.0;2019-06-30;;;;;43.328489984072974;5.4928400206812;13002;0106;130020106;H
81879;2019-07;13;13002;2019;90;2.0;SARL SERIA;40014642900016;83EO;;;1;554.0;0.0;0.0;0.0;1.0;1.0;0.0;0.0;2.0;0.0;2.0;;;1.0;0.0;0.0;0.0;0.0;0.0;0.0;0.0;0.0;0.0;;0.0;241.0;0.0;0.0;0.0;7.0;2019-07-31;;;;;43.33356792160684;5.482421683316167;13002;0106;130020106;H
85103;2019-09;13;13002;2019;90;2.0;SARL VESTA;43426016200020;249HA;251HA;;2;1423.0;0.0;0.0;0.0;3.0;0.0;0.0;0.0;0.0;3.0;3.0;2.0;2.0;0.0;1.0;0.0;0.0;0.0;0.0;0.0;0.0;0.0;0.0;;128.0;0.0;340.0;0.0;0.0;10.0;2019-09-30;2019-09-03;;;;43.319240009095154;5.476160033362049;13002;0106;130020106;H
85104;2019-09;13;13002;2019;90;2.0;;;92EY;;;1;2501.0;0.0;0.0;0.0;2.0;0.0;0.0;0.0;2.0;0.0;2.0;2.0;;1.0;0.0;0.0;0.0;0.0;0.0;0.0;0.0;0.0;0.0;;0.0;300.0;0.0;0.0;0.0;7.0;2019-09-30;;;;;43.325050009100266;5.491890015775283;13002;0106;130020106;H
87794;2019-10;13;13002;2019;32;2.0;SCI CALUPA;44183994100016;111DR;;;2;1034.0;0.0;0.0;0.0;0.0;1.0;0.0;1.0;1.0;0.0;1.0;2.0;1.0;1.0;0.0;0.0;0.0;0.0;0.0;0.0;0.0;0.0;0.0;;163.0;235.0;0.0;163.0;0.0;12.0;2019-10-31;2019-10-22;;;;43.328489984072974;5.4928400206812;13002;0106;130020106;H
91035;2019-11;13;13002;2019;90;2.0;SARL MONTESPIN;48068880500010;27HH;;;1;861.0;0.0;0.0;0.0;1.0;0.0;0.0;0.0;1.0;0.0;1.0;;;0.0;0.0;1.0;0.0;0.0;0.0;0.0;0.0;0.0;0.0;;0.0;70.0;0.0;0.0;0.0;14.0;2019-11-30;;;;;43.32089678102322;5.495596608927587;13002;0106;130020106;H
94027;2019-12;13;13002;2019;90;2.0;SARL SERIA;40014642900016;83EO;;;2;554.0;0.0;0.0;0.0;1.0;1.0;0.0;0.0;2.0;0.0;2.0;;1.0;1.0;0.0;0.0;0.0;0.0;0.0;0.0;0.0;0.0;0.0;;0.0;241.0;0.0;0.0;0.0;7.0;2019-12-31;2019-12-18;;;;43.3316447;5.4876629;13002;0106;130020106;H
97291;2020-01;13;13002;2020;90;2.0;SCI CARLEVAN;48409367900013;225DR;226DR;228DR;1;10188.0;1.0;44.0;2.0;0.0;0.0;0.0;0.0;0.0;47.0;47.0;5.0;;0.0;0.0;1.0;1.0;0.0;0.0;0.0;0.0;0.0;0.0;;0.0;2803.0;0.0;0.0;0.0;6.0;2020-01-31;;;;;43.33344688281712;5.487288426354818;13002;0106;130020106;H
100002;2020-02;13;13002;2019;32;2.0;SCI SENASA;;92EY;;;2;2501.0;0.0;0.0;0.0;2.0;0.0;0.0;0.0;2.0;0.0;2.0;2.0;1.0;1.0;0.0;0.0;0.0;0.0;0.0;0.0;0.0;0.0;0.0;;0.0;300.0;0.0;0.0;0.0;7.0;2020-02-29;2020-02-07;;;;43.325050009100266;5.491890015775283;13002;0106;130020106;H
102621;2021-03;13;13002;2021;32;2.0;SCI BELLEVUE;81154592000019;311EY;;;2;1324.0;0.0;0.0;0.0;0.0;2.0;0.0;0.0;2.0;0.0;2.0;;2.0;0.0;1.0;0.0;0.0;0.0;0.0;0.0;0.0;0.0;0.0;;135.0;102.0;0.0;0.0;0.0;7.0;2021-03-31;2021-03-17;;;;43.32510998161749;5.485149959793858;13002;0106;130020106;H
289;2018-04;13;13004;2018;90;2.0;"SARL ""LA SAM""";823002621;01012CO;01010CO;01014CO;1;328.0;0.0;0.0;2.0;0.0;0.0;0.0;0.0;2.0;0.0;2.0;;;0.0;0.0;0.0;0.0;0.0;0.0;0.0;0.0;0.0;0.0;;0.0;123.0;0.0;0.0;0.0;7.0;2018-04-30;;;;;43.694850824501245;4.630431073551683;13004;0114;130040114;H
2724;2019-08;13;13004;2019;90;2.0;SCCV 80 CH DES MOINES;85265805300016;2AN;;;1;23148.0;0.0;152.0;77.0;20.0;0.0;0.0;0.0;0.0;249.0;249.0;3.0;;0.0;1.0;0.0;0.0;0.0;0.0;0.0;0.0;0.0;0.0;;0.0;13819.0;0.0;0.0;0.0;7.0;2019-08-31;;;;;43.6977792;4.6387201;13004;0114;130040114;H
29615;2017-11;13;13004;2017;32;2.0;ETCG  sci;498336908;00978CO;;;1;811.0;0.0;0.0;0.0;3.0;0.0;0.0;0.0;3.0;0.0;3.0;;;0.0;0.0;0.0;0.0;0.0;0.0;0.0;0.0;0.0;0.0;;0.0;252.0;0.0;0.0;0.0;7.0;2017-11-30;;;;;43.694239986918035;4.6306300184832025;13004;0114;130040114;H
38491;2018-02;13;13004;2017;32;2.0;ETCG  sci;498336908;00978CO;;;2;811.0;0.0;0.0;0.0;3.0;0.0;0.0;0.0;3.0;0.0;3.0;;1.0;0.0;0.0;0.0;0.0;0.0;0.0;0.0;0.0;0.0;0.0;;0.0;252.0;0.0;0.0;0.0;7.0;;2018-02-08;;;2018-02-28;43.694239986918035;4.6306300184832025;13004;0114;130040114;H
38493;2018-02;13;13004;2018;90;2.0;SCI   E.T.C.G.;498336908;00981CO;00982CO;00983CO;1;942.0;0.0;0.0;0.0;1.0;0.0;0.0;0.0;1.0;0.0;1.0;;;0.0;0.0;0.0;0.0;0.0;0.0;0.0;0.0;0.0;0.0;;0.0;98.0;0.0;0.0;0.0;5.0;;;;;2018-02-28;43.6934822;4.6310242;13004;0114;130040114;H
66084;2019-01;13;13004;2018;90;2.0;"SARL ""LA SAM""";82300262100014;01012CO;01010CO;01014CO;2;328.0;0.0;0.0;2.0;0.0;0.0;0.0;0.0;2.0;0.0;2.0;;1.0;1.0;0.0;0.0;0.0;0.0;0.0;0.0;0.0;0.0;0.0;;0.0;123.0;0.0;0.0;0.0;7.0;2019-01-31;2018-08-02;;;;43.694850824501245;4.630431073551683;13004;0114;130040114;H
66087;2019-01;13;13004;2018;90;2.0;ETCG;49833690800021;1038CO;1039CO;1041CO;1;1067.0;0.0;0.0;0.0;1.0;0.0;0.0;0.0;1.0;0.0;1.0;;;0.0;0.0;1.0;0.0;0.0;0.0;0.0;0.0;0.0;0.0;;252.0;93.0;0.0;0.0;0.0;7.0;2019-01-31;;;;;43.694239986918035;4.6306300184832025;13004;0114;130040114;H
68541;2019-02;13;13004;2018;32;2.0;SCI ETCG;49833690800021;1038CO;1039CO;1041CO;2;1067.0;0.0;0.0;0.0;1.0;0.0;0.0;0.0;1.0;0.0;1.0;;1.0;0.0;0.0;1.0;0.0;0.0;0.0;0.0;0.0;0.0;0.0;;252.0;93.0;0.0;0.0;0.0;7.0;2019-02-28;2019-02-11;;;;43.694239986918035;4.6306300184832025;13004;0114;130040114;H
68543;2019-02;13;13004;2019;90;2.0;SARL GROUPE CLUB CESAR (LOT A);830669214;344AK;;;1;291.0;0.0;0.0;0.0;0.0;0.0;0.0;0.0;1.0;0.0;1.0;;;1.0;0.0;0.0;0.0;0.0;0.0;0.0;0.0;0.0;0.0;;0.0;116.0;0.0;0.0;0.0;5.0;2019-02-28;;;;;43.68985998150421;4.6324499811196915;13004;0114;130040114;H
68544;2019-02;13;13004;2019;90;2.0;;;344AK;;;1;291.0;0.0;0.0;0.0;1.0;0.0;0.0;0.0;1.0;0.0;1.0;;;0.0;1.0;0.0;0.0;0.0;0.0;0.0;0.0;0.0;0.0;;0.0;116.0;0.0;0.0;0.0;5.0;2019-02-28;;;;;43.68985998150421;4.6324499811196915;13004;0114;130040114;H
76431;2019-05;13;13004;2019;10;2.0;SARL GROUPE CLUB CESAR (LOT A);83066921400017;344AK;;;2;291.0;0.0;0.0;0.0;1.0;0.0;0.0;1.0;1.0;0.0;1.0;;1.0;0.0;1.0;0.0;0.0;0.0;0.0;0.0;0.0;0.0;0.0;;67.0;116.0;0.0;67.0;0.0;12.0;2019-05-31;2019-05-14;;;;43.68985998150421;4.6324499811196915;13004;0114;130040114;H
76432;2019-05;13;13004;2019;10;2.0;SARL GROUPE CLUB CESAR (LOT B);83066921400017;344AK;;;2;291.0;0.0;0.0;0.0;1.0;0.0;0.0;1.0;1.0;0.0;1.0;;1.0;0.0;1.0;0.0;0.0;0.0;0.0;0.0;0.0;0.0;0.0;;74.0;116.0;0.0;74.0;0.0;12.0;2019-05-31;2019-05-14;;;;43.68985998150421;4.6324499811196915;13004;0114;130040114;H
290;2018-04;13;13005;2018;90;2.0;SCI DESTROIS;50981734200025;0135DS;;;1;1104.0;0.0;0.0;0.0;0.0;0.0;0.0;0.0;1.0;0.0;1.0;2.0;;1.0;1.0;0.0;0.0;0.0;0.0;0.0;0.0;0.0;0.0;;0.0;93.0;0.0;0.0;0.0;5.0;2018-04-30;;;;;43.287296647318634;5.535681169035789;13005;0703;130050703;A
46882;2018-06;13;13005;2018;32;2.0;SCI DESTROIS;50981734200025;0135DS;;;2;1104.0;0.0;0.0;0.0;0.0;0.0;0.0;0.0;1.0;0.0;1.0;2.0;1.0;1.0;0.0;0.0;0.0;0.0;0.0;0.0;0.0;0.0;0.0;;0.0;93.0;0.0;0.0;0.0;5.0;2018-06-30;2018-06-28;;;;43.287296647318634;5.535681169035789;13005;0703;130050703;A
291;2018-04;13;13013;2018;90;2.0;Les Genets;47927148800013;446C;;;1;1202.0;0.0;0.0;1.0;0.0;0.0;0.0;0.0;1.0;0.0;1.0;1.0;;1.0;0.0;0.0;0.0;0.0;0.0;0.0;0.0;0.0;1.0;;0.0;65.0;0.0;0.0;0.0;14.0;2018-04-30;;;;;43.40600000000006;5.575640000000021;13013;0000;130130000;Z
5281;2017-01;13;13013;2016;32;2.0;;;452C;;;2;6327.0;0.0;0.0;1.0;0.0;0.0;0.0;0.0;1.0;0.0;1.0;;1.0;1.0;0.0;0.0;0.0;0.0;0.0;0.0;0.0;0.0;0.0;;0.0;89.0;0.0;0.0;0.0;14.0;2017-01-31;2017-01-30;;;;43.40600000000006;5.575640000000021;13013;0000;130130000;Z
52944;2018-08;13;13013;2018;32;2.0;SCI LES GENETS;47927148800013;446C;;;2;1202.0;0.0;0.0;1.0;0.0;0.0;0.0;0.0;1.0;0.0;1.0;1.0;1.0;1.0;0.0;0.0;0.0;0.0;0.0;0.0;0.0;0.0;1.0;;0.0;65.0;0.0;0.0;0.0;14.0;2018-08-31;2018-08-08;;;;43.40600000000006;5.575640000000021;13013;0000;130130000;Z
87802;2019-10;13;13013;2019;90;2.0;;;230AI;;;1;1534.0;0.0;0.0;0.0;1.0;0.0;0.0;0.0;1.0;0.0;1.0;2.0;;0.0;1.0;0.0;0.0;0.0;0.0;0.0;0.0;0.0;0.0;;0.0;107.0;0.0;0.0;0.0;5.0;2019-10-31;;;;;43.425657;5.5879885;13013;0000;130130000;Z
87803;2019-10;13;13013;2019;90;2.0;;;201AI;203AI;;1;1174.0;0.0;0.0;0.0;5.0;0.0;0.0;0.0;5.0;0.0;5.0;;;0.0;1.0;0.0;0.0;0.0;0.0;0.0;0.0;0.0;0.0;;0.0;478.0;0.0;0.0;0.0;7.0;2019-10-31;;;;;43.422689228120674;5.580659253709502;13013;0000;130130000;Z
94035;2019-12;13;13013;2019;10;2.0;;;230AI;;;2;1534.0;0.0;0.0;0.0;1.0;0.0;0.0;0.0;1.0;0.0;1.0;2.0;1.0;0.0;1.0;0.0;0.0;0.0;0.0;0.0;0.0;0.0;0.0;;0.0;107.0;0.0;0.0;0.0;5.0;2019-12-31;2019-12-23;;;;43.422689228120674;5.580659253709502;13013;0000;130130000;Z
94036;2019-12;13;13013;2019;90;2.0;;;275AB;96AB;;1;1001.0;0.0;0.0;0.0;2.0;0.0;0.0;0.0;2.0;0.0;2.0;1.0;;1.0;0.0;0.0;0.0;0.0;0.0;0.0;0.0;0.0;0.0;;0.0;186.0;0.0;0.0;0.0;7.0;2019-12-31;;;;;43.42700571976018;5.584214411855874;13013;0000;130130000;Z
292;2018-04;13;13021;2018;90;2.0;SARL SOGEKA;50294685800029;211AY;;;1;4588.0;0.0;0.0;0.0;0.0;0.0;1.0;1.0;1.0;0.0;1.0;;;1.0;0.0;0.0;0.0;0.0;0.0;0.0;0.0;0.0;0.0;;117.0;603.0;0.0;117.0;0.0;12.0;2018-04-30;;;;;43.332248408562954;5.1630377166317345;13021;0102;130210102;H
49888;2018-07;13;13021;2018;10;2.0;SARL SOGEKA;50294685800029;211AY;;;2;4588.0;0.0;0.0;0.0;0.0;0.0;1.0;1.0;1.0;0.0;1.0;;1.0;1.0;0.0;0.0;0.0;0.0;0.0;0.0;0.0;0.0;0.0;;117.0;603.0;0.0;117.0;0.0;12.0;2018-07-31;2018-07-25;;;;43.332248408562954;5.1630377166317345;13021;0102;130210102;H
73884;2019-04;13;13021;2019;10;2.0;CONSTRUCTION DE LA COTE BLEUE;0661755855;66AS;;;2;851.0;0.0;0.0;0.0;0.0;0.0;1.0;0.0;1.0;0.0;1.0;;1.0;0.0;1.0;0.0;0.0;0.0;0.0;0.0;0.0;0.0;0.0;;0.0;180.0;0.0;0.0;0.0;5.0;2019-04-30;2019-04-01;;;;43.33289999670018;5.159419982302666;13021;0102;130210102;H
293;2018-04;13;13021;2018;90;2.0;;;11AE;14AE;15AE;1;545.0;0.0;0.0;1.0;2.0;1.0;0.0;0.0;0.0;4.0;4.0;2.0;;0.0;1.0;0.0;0.0;0.0;0.0;0.0;0.0;0.0;0.0;;0.0;398.0;0.0;0.0;0.0;7.0;2018-04-30;;;;;43.33269716704685;5.151681545653386;13021;0101;130210101;H
11896;2017-04;13;13021;2012;32;2.0;SCCV Bocoumajour Via Del Mare;;18AH;19AH;21AH;3;4155.0;2.0;6.0;13.0;5.0;0.0;0.0;1.0;3.0;23.0;26.0;1.0;1.0;0.0;1.0;0.0;0.0;0.0;0.0;0.0;0.0;0.0;0.0;;100.0;2009.0;0.0;100.0;0.0;12.0;2017-04-30;2013-05-24;2017-04-20;;;43.329200015090976;5.148289988352133;13021;0101;130210101;H
38498;2018-02;13;13021;2018;90;2.0;Societe Le Boeing;83143874420001;174AH;;;1;839.0;0.0;0.0;0.0;0.0;0.0;0.0;1.0;1.0;0.0;1.0;;;0.0;0.0;0.0;0.0;0.0;0.0;0.0;0.0;0.0;0.0;;323.0;276.0;0.0;323.0;0.0;12.0;;;;;2018-02-28;43.32914000066424;5.147709960652378;13021;0101;130210101;H
46893;2018-06;13;13021;2018;90;2.0;;;11AE;14AE;15AE;2;545.0;0.0;0.0;1.0;2.0;1.0;0.0;0.0;0.0;4.0;4.0;2.0;1.0;0.0;1.0;0.0;0.0;0.0;0.0;0.0;0.0;0.0;0.0;;0.0;398.0;0.0;0.0;0.0;7.0;2018-06-30;2018-07-02;;;;43.33269716704685;5.151681545653386;13021;0101;130210101;H
49889;2018-07;13;13021;2018;90;2.0;SCI DU VALLON;42833931100014;235AI;;;1;928.0;0.0;0.0;0.0;0.0;0.0;0.0;0.0;3.0;0.0;3.0;;;0.0;0.0;1.0;0.0;0.0;0.0;0.0;0.0;0.0;0.0;;191.0;268.0;0.0;0.0;0.0;7.0;2018-07-31;;;;;43.330960830121676;5.145499653251929;13021;0101;130210101;H
55489;2018-09;13;13021;2018;90;2.0;;;215AN;215PAN;;1;600.0;0.0;0.0;0.0;0.0;1.0;0.0;0.0;1.0;0.0;1.0;;;0.0;0.0;0.0;0.0;0.0;0.0;0.0;0.0;0.0;0.0;;0.0;127.0;0.0;0.0;0.0;5.0;2018-09-30;;;;;43.33282267364339;5.14574624837644;13021;0101;130210101;H
60895;2018-11;13;13021;2018;10;2.0;;;73AI;;;2;945.0;0.0;0.0;0.0;0.0;0.0;1.0;0.0;1.0;0.0;1.0;2.0;1.0;1.0;0.0;0.0;0.0;0.0;0.0;0.0;0.0;0.0;0.0;;131.0;163.0;0.0;131.0;0.0;12.0;2018-11-30;2018-10-26;;;;43.3307169;5.1461222;13021;0101;130210101;H
63378;2018-12;13;13021;2018;90;2.0;;;35AI;;;1;947.0;0.0;0.0;4.0;0.0;2.0;0.0;0.0;0.0;6.0;6.0;;;0.0;1.0;0.0;0.0;0.0;0.0;0.0;0.0;0.0;0.0;;404.0;183.0;404.0;0.0;404.0;12.0;2018-12-31;;;;;43.3315899890529;5.144479994263719;13021;0101;130210101;H
71084;2019-03;13;13021;2018;90;2.0;;;35AI;;;2;947.0;0.0;0.0;0.0;2.0;0.0;0.0;0.0;0.0;2.0;2.0;;2.0;0.0;1.0;0.0;0.0;0.0;0.0;0.0;0.0;0.0;0.0;;404.0;233.0;404.0;0.0;404.0;12.0;2019-03-31;2019-03-19;;;;43.3315899890529;5.144479994263719;13021;0101;130210101;H
73885;2019-04;13;13021;2019;90;2.0;OPTIMUM INVEST;52307674300013;1818A;360A;627A;1;3712.0;0.0;0.0;2.0;0.0;0.0;0.0;0.0;2.0;0.0;2.0;;;0.0;1.0;0.0;0.0;0.0;0.0;0.0;0.0;0.0;0.0;;66.0;0.0;181.0;0.0;0.0;14.0;2019-04-30;;;;;43.33066999136037;5.144849971469881;13021;0101;130210101;H
85113;2019-09;13;13021;2019;90;2.0;OPTIMUM INVEST;52076743;1818A;360A;627A;2;3712.0;0.0;0.0;2.0;0.0;0.0;0.0;0.0;2.0;0.0;2.0;;2.0;0.0;1.0;0.0;0.0;0.0;0.0;0.0;0.0;0.0;0.0;;66.0;0.0;181.0;0.0;0.0;14.0;2019-09-30;2019-09-23;;;;43.33066999136037;5.144849971469881;13021;0101;130210101;H
100012;2020-02;13;13021;2020;90;2.0;;;35AI;;;1;947.0;0.0;0.0;3.0;0.0;0.0;0.0;0.0;0.0;3.0;3.0;;;0.0;1.0;0.0;0.0;0.0;0.0;0.0;0.0;0.0;0.0;;358.0;35.0;56.0;0.0;0.0;14.0;2020-02-29;;;;;43.33165;5.144525;13021;0101;130210101;H
294;2018-04;13;13026;2018;90;2.0;FERGOM RESIDENCE;78903788400028;0529AL;0558AL;0559AL;1;1565.0;0.0;0.0;0.0;6.0;0.0;0.0;0.0;6.0;0.0;6.0;;;0.0;1.0;0.0;0.0;0.0;0.0;0.0;0.0;0.0;0.0;;0.0;504.0;0.0;0.0;0.0;7.0;2018-04-30;;;;;43.3865519;5.1758373;13026;0101;130260101;H
38502;2018-02;13;13026;2018;90;2.0;;;0529AL;0558AL;0559AL;1;1565.0;0.0;0.0;3.0;5.0;0.0;0.0;0.0;8.0;0.0;8.0;2.0;;0.0;1.0;0.0;0.0;0.0;0.0;0.0;0.0;0.0;0.0;;0.0;570.0;0.0;0.0;0.0;7.0;;;;;2018-02-28;43.3865519;5.1758373;13026;0101;130260101;H
71087;2019-03;13;13026;2019;90;2.0;EURL JIAR;84080049400014;0558AL;;;1;607.0;0.0;0.0;0.0;3.0;0.0;0.0;0.0;3.0;0.0;3.0;;;0.0;0.0;1.0;0.0;0.0;0.0;0.0;0.0;0.0;0.0;;0.0;286.0;0.0;0.0;0.0;7.0;2019-03-31;;;;;43.386557602838714;5.175708950487784;13026;0101;130260101;H
79115;2019-06;13;13026;2019;90;2.0;SNC COGEDIM PROVENCE;44273941300056;0090AM;0124AM;;1;25011.0;4.0;6.0;18.0;57.0;6.0;0.0;0.0;0.0;91.0;91.0;;;0.0;1.0;1.0;0.0;0.0;0.0;0.0;0.0;0.0;0.0;;3350.0;7421.0;0.0;3350.0;0.0;14.0;2019-06-30;;;;;43.391037954911496;5.177599981713454;13026;0101;130260101;H
81889;2019-07;13;13026;2019;90;2.0;EURL JIAR;84080049400014;0558AL;;;2;607.0;0.0;0.0;0.0;3.0;0.0;0.0;0.0;3.0;0.0;3.0;;1.0;0.0;0.0;1.0;0.0;0.0;0.0;0.0;0.0;0.0;0.0;;0.0;286.0;0.0;0.0;0.0;7.0;2019-07-31;2019-07-25;;;;43.3865519;5.1758373;13026;0101;130260101;H
85115;2019-09;13;13026;2019;90;2.0;SARL LE CAP 10;51954999200013;0038BO;;;1;497.0;0.0;0.0;4.0;0.0;0.0;0.0;0.0;0.0;4.0;4.0;3.0;;0.0;1.0;0.0;0.0;0.0;0.0;0.0;0.0;0.0;0.0;;80.0;277.0;0.0;;0.0;7.0;2019-09-30;;;;;43.38691024189037;5.166350153425963;13026;0101;130260101;H
94042;2019-12;13;13026;2019;90;2.0;SNC  COGEDIM PROVENCE;44273941300056;0090AM;0124AM;;1;25011.0;0.0;6.0;30.0;53.0;6.0;0.0;1.0;95.0;0.0;95.0;1.0;;0.0;1.0;1.0;0.0;0.0;0.0;0.0;0.0;0.0;0.0;;335.0;7470.0;0.0;335.0;0.0;14.0;2019-12-31;;;;;43.391037954911496;5.177599981713454;13026;0101;130260101;H
97309;2020-01;13;13026;2019;90;2.0;SARL LE CAP 10;51954999200013;0038BO;;;2;497.0;0.0;1.0;3.0;0.0;0.0;0.0;0.0;0.0;4.0;4.0;3.0;2.0;0.0;1.0;0.0;0.0;0.0;0.0;0.0;0.0;0.0;0.0;;80.0;226.0;0.0;69.0;0.0;12.0;2020-01-31;2020-01-27;;;;43.3856871;5.1660837;13026;0101;130260101;H
295;2018-04;13;13027;2018;90;2.0;;;13IT;;;1;7673.0;0.0;0.0;0.0;0.0;0.0;0.0;0.0;1.0;0.0;1.0;2.0;;1.0;0.0;0.0;0.0;0.0;0.0;0.0;0.0;0.0;0.0;;0.0;142.0;0.0;0.0;0.0;14.0;2018-04-30;;;;;43.8722999831067;4.816360000901085;13027;0101;130270101;H
2736;2019-08;13;13027;2019;90;2.0;;;686 BAH;;;1;0.0;22.0;70.0;24.0;0.0;0.0;0.0;0.0;0.0;116.0;116.0;3.0;;0.0;1.0;0.0;1.0;0.0;0.0;0.0;0.0;0.0;0.0;;0.0;7512.0;0.0;0.0;0.0;6.0;2019-08-31;;;;;43.880679031114674;4.845818515217811;13027;0101;130270101;H
5285;2017-01;13;13027;2016;30;2.0;RC PROMOTION;;495AH;;;2;13345.0;6.0;36.0;31.0;0.0;0.0;0.0;0.0;19.0;54.0;73.0;;1.0;0.0;1.0;0.0;0.0;0.0;0.0;0.0;0.0;0.0;0.0;;0.0;4480.0;0.0;0.0;0.0;14.0;2017-01-31;2017-01-05;;;;43.87800223819381;4.84120939903217;13027;0101;130270101;H
32411;2017-12;13;13027;2017;10;2.0;;;97IP;;;2;20244.0;0.0;0.0;0.0;0.0;1.0;0.0;0.0;1.0;0.0;1.0;1.0;1.0;1.0;0.0;0.0;0.0;0.0;0.0;0.0;0.0;0.0;0.0;;0.0;120.0;0.0;;0.0;14.0;;2017-12-12;;0.0;2017/12;43.86698521859078;4.798341049687599;13027;0101;130270101;H
44091;2018-05;13;13027;2018;10;2.0;;;13IT;;;2;7673.0;0.0;0.0;0.0;0.0;1.0;0.0;0.0;1.0;0.0;1.0;2.0;1.0;1.0;0.0;0.0;0.0;0.0;0.0;0.0;0.0;0.0;0.0;;0.0;142.0;0.0;0.0;0.0;14.0;2018-05-31;2018-05-22;;;;43.8721116;4.8150931;13027;0101;130270101;H
46895;2018-06;13;13027;2018;90;2.0;;;42HW;;;1;28588.0;0.0;0.0;0.0;0.0;0.0;1.0;0.0;1.0;0.0;1.0;2.0;;1.0;0.0;0.0;0.0;0.0;0.0;0.0;0.0;0.0;0.0;;0.0;150.0;0.0;0.0;0.0;14.0;2018-06-30;;;;;43.857830010288325;4.822520029182783;13027;0101;130270101;H
55492;2018-09;13;13027;2018;10;2.0;;;42HW;;;2;28588.0;0.0;0.0;0.0;0.0;0.0;1.0;0.0;1.0;0.0;1.0;2.0;1.0;1.0;0.0;0.0;0.0;0.0;0.0;0.0;0.0;0.0;0.0;;0.0;150.0;0.0;0.0;0.0;14.0;2018-09-30;2018-09-18;;;;43.857830010288325;4.822520029182783;13027;0101;130270101;H
71092;2019-03;13;13027;2019;90;2.0;;;680AH;;;1;3238.0;0.0;0.0;0.0;9.0;9.0;0.0;0.0;18.0;0.0;18.0;2.0;;0.0;1.0;0.0;0.0;0.0;0.0;0.0;0.0;0.0;0.0;;0.0;1407.0;0.0;0.0;0.0;7.0;2019-03-31;;;;;43.87233356314094;4.8303118453771745;13027;0101;130270101;H
76441;2019-05;13;13027;2016;10;2.0;GIOACCHINO;50242852700019;33IS;36IS;;2;12620.0;0.0;0.0;0.0;0.0;1.0;0.0;0.0;1.0;0.0;1.0;;2.0;0.0;0.0;1.0;0.0;0.0;0.0;0.0;0.0;0.0;0.0;;167.0;0.0;258.0;0.0;0.0;10.0;2019-05-31;2019-05-13;;;;43.8805832;4.8456726;13027;0101;130270101;H
100014;2020-02;13;13027;2019;31;2.0;NEXITY IR PROGRAMMES COTE D AZUR;;686 BAH;;;2;0.0;22.0;70.0;24.0;0.0;0.0;0.0;0.0;0.0;116.0;116.0;3.0;1.0;0.0;1.0;0.0;0.0;0.0;0.0;0.0;0.0;0.0;0.0;;0.0;7512.0;0.0;0.0;0.0;7.0;2020-02-29;2020-02-18;;;;43.880679031114674;4.845818515217811;13027;0101;130270101;H
296;2018-04;13;13028;2017;32;2.0;SCI CHANTARM;481439024;0400AV;;;2;928.0;0.0;0.0;0.0;4.0;0.0;0.0;0.0;4.0;0.0;4.0;;1.0;0.0;0.0;0.0;0.0;0.0;0.0;0.0;0.0;0.0;0.0;;368.0;346.0;0.0;368.0;0.0;12.0;2018-04-30;2018-04-16;;;;43.184579998806385;5.609010013569616;13028;0106;130280106;H
9564;2017-03;13;13028;2017;31;2.0;SCI MEDITERRANEE C/O PROMOGIM;44296439100019;0329AY;;;1;2599.0;2.0;20.0;19.0;1.0;0.0;0.0;0.0;0.0;42.0;42.0;4.0;;0.0;1.0;0.0;0.0;0.0;0.0;0.0;0.0;0.0;0.0;;0.0;2414.0;0.0;0.0;0.0;7.0;2017-03-31;;;;;43.1907557;5.6118925;13028;0106;130280106;H
21584;2017-08;13;13028;2017;32;2.0;SCCV JF13600 REPRESENTEE PAR MONSIEUR SANDRO PACCH;83050455100011;0200AR;0201AR;0202AR;1;1473.0;11.0;6.0;21.0;2.0;0.0;0.0;0.0;0.0;40.0;40.0;;;0.0;1.0;0.0;0.0;0.0;0.0;0.0;0.0;0.0;0.0;;261.0;2190.0;0.0;261.0;0.0;12.0;2017-08-31;;;;;43.183424423883245;5.603279374675879;13028;0106;130280106;H
44093;2018-05;13;13028;2018;90;2.0;SCCV JF13600 MONSIEUR SANDRO PACCH;8305045510011;0200AR;0201AR;0202AR;1;1473.0;8.0;5.0;19.0;1.0;0.0;0.0;0.0;0.0;33.0;33.0;;;0.0;1.0;0.0;0.0;0.0;0.0;0.0;0.0;0.0;0.0;;261.0;1916.0;0.0;261.0;0.0;12.0;2018-05-31;;;;;43.183424423883245;5.603279374675879;13028;0106;130280106;H
58052;2018-10;13;13028;2018;32;2.0;SCCV JF13600;83050455100011;0200AR;0201AR;0202AR;2;1473.0;8.0;5.0;19.0;1.0;0.0;0.0;0.0;0.0;33.0;33.0;;1.0;0.0;1.0;0.0;0.0;0.0;0.0;0.0;0.0;0.0;0.0;;261.0;1916.0;0.0;261.0;0.0;12.0;2018-10-31;2018-10-04;;;;43.183424423883245;5.603279374675879;13028;0106;130280106;H
102625;2021-03;13;13028;2020;32;2.0;SCCV MLC;88794856000016;0200AR;0201AR;0202AR;2;1473.0;0.0;8.0;14.0;6.0;0.0;0.0;0.0;0.0;28.0;28.0;;1.0;0.0;1.0;0.0;0.0;0.0;0.0;0.0;0.0;0.0;0.0;;227.0;1830.0;0.0;227.0;0.0;12.0;2021-03-31;2021-03-12;;;;43.1852256;5.6049665;13028;0106;130280106;H
297;2018-04;13;13032;2018;10;2.0;;;408AV;;;2;5006.0;0.0;0.0;0.0;0.0;0.0;0.0;0.0;1.0;0.0;1.0;;1.0;0.0;0.0;0.0;0.0;0.0;0.0;0.0;0.0;0.0;0.0;;0.0;204.0;0.0;0.0;0.0;5.0;2018-04-30;2018-04-05;;;;43.56714979398449;5.355946946825844;13032;0103;130320103;H
5289;2017-01;13;13032;2017;90;2.0;;;198AI;199AI;202AI;1;2000.0;0.0;0.0;0.0;2.0;0.0;0.0;0.0;2.0;0.0;2.0;;;1.0;0.0;0.0;0.0;0.0;0.0;0.0;0.0;0.0;0.0;;0.0;199.0;0.0;0.0;0.0;7.0;2017-01-31;;;;;43.5678864;5.3529245;13032;0103;130320103;H
9567;2017-03;13;13032;2017;32;2.0;;;415BE;;;2;1776.0;0.0;0.0;0.0;0.0;1.0;0.0;0.0;1.0;0.0;1.0;;1.0;1.0;0.0;0.0;0.0;0.0;0.0;0.0;0.0;0.0;0.0;;0.0;135.0;0.0;0.0;0.0;5.0;2017-03-31;2017-03-21;;;;43.56510000469402;5.357440014070562;13032;0103;130320103;H
11905;2017-04;13;13032;2017;10;2.0;;;288AN;;;1;1023.0;0.0;0.0;0.0;0.0;0.0;1.0;0.0;1.0;0.0;1.0;;;1.0;0.0;0.0;0.0;0.0;0.0;0.0;0.0;0.0;0.0;;0.0;541.0;0.0;0.0;0.0;5.0;2017-04-30;;;;;43.56988055739756;5.359409003276853;13032;0103;130320103;H
16398;2017-06;13;13032;2016;10;2.0;;;179AI;;;3;1100.0;0.0;0.0;0.0;0.0;1.0;0.0;0.0;1.0;0.0;1.0;;1.0;1.0;0.0;0.0;0.0;0.0;0.0;0.0;0.0;0.0;0.0;;0.0;143.0;0.0;0.0;0.0;5.0;2017-06-30;2016-11-07;2017-03-10;;;43.56701484494883;5.350222862561742;13032;0103;130320103;H
24240;2017-09;13;13032;2017;90;2.0;;;198AI;199AI;202AI;3;2000.0;0.0;0.0;0.0;2.0;0.0;0.0;0.0;2.0;0.0;2.0;;1.0;1.0;0.0;0.0;0.0;0.0;0.0;0.0;0.0;0.0;0.0;;0.0;199.0;0.0;0.0;0.0;7.0;2017-09-30;2017-03-10;2017-07-26;;;43.5678864;5.3529245;13032;0103;130320103;H
29623;2017-11;13;13032;2017;10;2.0;;;423AM;;;1;706.0;0.0;0.0;0.0;0.0;0.0;0.0;0.0;1.0;0.0;1.0;;;0.0;0.0;0.0;0.0;0.0;0.0;0.0;0.0;0.0;0.0;;0.0;101.0;0.0;0.0;0.0;5.0;2017-11-30;;;;;43.56991923660969;5.350492472029727;13032;0103;130320103;H
32420;2017-12;13;13032;2017;10;2.0;;;423AM;;;2;706.0;0.0;0.0;0.0;0.0;0.0;0.0;0.0;1.0;0.0;1.0;;1.0;0.0;0.0;0.0;0.0;0.0;0.0;0.0;0.0;0.0;0.0;;0.0;101.0;0.0;;0.0;5.0;;2017-12-28;;0.0;2017/12;43.56991923660969;5.350492472029727;13032;0103;130320103;H
38505;2018-02;13;13032;2017;10;2.0;;;480AM;;;2;0.0;0.0;0.0;0.0;0.0;0.0;0.0;0.0;1.0;0.0;1.0;;2.0;0.0;0.0;0.0;0.0;0.0;0.0;0.0;0.0;0.0;0.0;;30.0;45.0;30.0;0.0;30.0;12.0;;2018-02-13;;;2018-02-28;43.5687248;5.3543957;13032;0103;130320103;H
38506;2018-02;13;13032;2018;90;2.0;;;408AV;;;1;5006.0;0.0;0.0;0.0;0.0;0.0;0.0;0.0;1.0;0.0;1.0;;;0.0;0.0;0.0;0.0;0.0;0.0;0.0;0.0;0.0;0.0;;0.0;204.0;0.0;0.0;0.0;5.0;;;;;2018-02-28;43.56714979398449;5.355946946825844;13032;0103;130320103;H
41214;2018-03;13;13032;2018;10;2.0;;;494AT;;;2;1000.0;0.0;0.0;0.0;0.0;0.0;0.0;0.0;1.0;0.0;1.0;;1.0;0.0;0.0;0.0;0.0;0.0;0.0;0.0;0.0;0.0;0.0;;0.0;202.0;0.0;0.0;0.0;5.0;2018-03-30;2018-03-08;;;;43.5673603137477;5.3596385722535675;13032;0103;130320103;H
52950;2018-08;13;13032;2015;90;2.0;SIMAC SOBSTYL;81148544000010;149AI;187AI;188AI;2;2028.0;0.0;0.0;0.0;1.0;1.0;0.0;0.0;2.0;0.0;2.0;;1.0;1.0;0.0;0.0;0.0;0.0;0.0;0.0;0.0;0.0;0.0;;0.0;202.0;0.0;0.0;0.0;7.0;2018-08-31;2015-06-02;;;;43.56806296750194;5.34905236014288;13032;0103;130320103;H
85116;2019-09;13;13032;2019;32;2.0;FEROLO SCI;35238851600010;356BE;376BE;530BE;2;991.0;0.0;0.0;0.0;2.0;0.0;0.0;0.0;2.0;0.0;2.0;;2.0;0.0;1.0;0.0;0.0;0.0;0.0;0.0;0.0;0.0;0.0;;0.0;67.0;150.0;0.0;0.0;14.0;2019-09-30;2019-08-01;;;;43.56503999026728;5.357670013493703;13032;0103;130320103;H
91054;2019-11;13;13032;2019;32;2.0;S.C.I. CHRISTIAN MERCIER;;;;;2;0.0;0.0;0.0;0.0;2.0;0.0;0.0;0.0;2.0;0.0;2.0;;1.0;1.0;0.0;0.0;0.0;0.0;0.0;0.0;0.0;0.0;0.0;;0.0;187.0;0.0;0.0;0.0;14.0;2019-11-30;2019-10-21;;;;43.5687248;5.3543957;13032;0103;130320103;H
91055;2019-11;13;13032;2019;10;2.0;;;114AM;;;2;1030.0;0.0;0.0;0.0;1.0;0.0;0.0;0.0;1.0;0.0;1.0;;1.0;1.0;0.0;0.0;0.0;0.0;0.0;0.0;0.0;0.0;0.0;;51.0;134.0;0.0;0.0;0.0;7.0;2019-11-30;2019-11-21;;;;43.568790011838445;5.351110000792488;13032;0103;130320103;H
298;2018-04;13;13034;2017;32;2.0;SCI DU ROUVAN;44211600000013;0096BI;0025BI;0024BI;2;11765.0;0.0;0.0;0.0;0.0;0.0;0.0;0.0;1.0;0.0;1.0;;2.0;0.0;0.0;0.0;0.0;0.0;0.0;0.0;0.0;0.0;0.0;;369.0;55.0;0.0;0.0;0.0;7.0;2018-04-30;2018-04-05;;;;43.77981822205445;4.93755647995297;13034;0000;130340000;Z
5290;2017-01;13;13034;2016;20;2.0;S.A. UN TOIT POUR TOUS;68020136500029;0188AD;0025AD;;2;3160.0;0.0;0.0;4.0;6.0;0.0;0.0;0.0;10.0;0.0;10.0;;1.0;0.0;0.0;1.0;0.0;0.0;0.0;0.0;0.0;0.0;0.0;;0.0;776.0;0.0;0.0;0.0;7.0;2017-01-31;2016-06-27;;;;43.75822290170681;4.953495356518283;13034;0000;130340000;Z
5291;2017-01;13;13034;2016;10;2.0;SA FAMIPA;4294380004;0170AE;0169AE;0167AE;2;4000.0;0.0;0.0;0.0;0.0;0.0;0.0;0.0;1.0;0.0;1.0;2.0;1.0;1.0;0.0;0.0;0.0;0.0;0.0;0.0;0.0;0.0;0.0;;0.0;253.0;0.0;0.0;0.0;5.0;2017-01-31;2016-07-15;;;;43.78510924258929;4.917585268127331;13034;0000;130340000;Z
5292;2017-01;13;13034;2016;32;2.0;SNC PRESTIGE DEVELOPPEMENT;5014166274110A;0112AN;0111AN;;2;4000.0;0.0;0.0;0.0;0.0;1.0;0.0;0.0;1.0;0.0;1.0;;1.0;1.0;0.0;0.0;0.0;0.0;0.0;0.0;0.0;0.0;0.0;;0.0;300.0;0.0;0.0;0.0;5.0;2017-01-31;2016-09-21;;;;43.7624475;4.9419866;13034;0000;130340000;Z
5293;2017-01;13;13034;2016;43;2.0;COMMUNE EYGALIERES;21130034800011;0330AB;;;2;1825.0;0.0;1.0;1.0;0.0;0.0;0.0;0.0;2.0;0.0;2.0;;2.0;0.0;0.0;1.0;0.0;0.0;0.0;0.0;0.0;0.0;0.0;;200.0;0.0;0.0;0.0;0.0;14.0;2017-01-31;2016-09-06;;;;43.75045100651328;4.955079672064677;13034;0000;130340000;Z
9569;2017-03;13;13034;2017;32;2.0;SCI EYGA;820325678;0231AC;;;2;2785.0;0.0;0.0;0.0;0.0;0.0;1.0;0.0;1.0;0.0;1.0;2.0;1.0;1.0;0.0;0.0;0.0;0.0;0.0;0.0;0.0;0.0;0.0;;0.0;300.0;0.0;0.0;0.0;5.0;2017-03-31;2017-03-02;;;;43.75693614250001;4.950106456530748;13034;0000;130340000;Z
24241;2017-09;13;13034;2016;20;2.0;S.A. UN TOIT POUR TOUS;68020136500029;0188AD;0025AD;;3;3160.0;0.0;0.0;4.0;6.0;0.0;0.0;0.0;10.0;0.0;10.0;;1.0;0.0;0.0;1.0;0.0;0.0;0.0;0.0;0.0;0.0;0.0;;0.0;776.0;0.0;0.0;0.0;7.0;2017-09-30;2016-06-27;2016-12-22;;;43.75822290170681;4.953495356518283;13034;0000;130340000;Z
26763;2017-10;13;13034;2016;43;2.0;COMMUNE EYGALIERES;21130034800011;0330AB;;;3;1825.0;0.0;1.0;1.0;0.0;0.0;0.0;0.0;2.0;0.0;2.0;;2.0;0.0;0.0;1.0;0.0;0.0;0.0;0.0;0.0;0.0;0.0;;200.0;0.0;0.0;0.0;0.0;14.0;2017-10-31;2016-09-06;2017-05-02;;;43.75045100651328;4.955079672064677;13034;0000;130340000;Z
26764;2017-10;13;13034;2016;10;2.0;SAS PATRIMONIA;813486511;0324CR;0309CR;0308CR;2;4040.0;0.0;0.0;0.0;0.0;0.0;0.0;0.0;1.0;0.0;1.0;;1.0;0.0;0.0;0.0;0.0;0.0;0.0;0.0;0.0;0.0;0.0;;0.0;300.0;0.0;0.0;0.0;5.0;2017-10-31;2017-10-14;;;;43.75702795325568;4.944027347118031;13034;0000;130340000;Z
29626;2017-11;13;13034;2017;30;2.0;SNC PRESTIGE DEVELOPPEMENT;501416267;0336CR;0334CR;;2;4000.0;0.0;0.0;0.0;0.0;0.0;0.0;0.0;1.0;0.0;1.0;2.0;1.0;0.0;0.0;0.0;0.0;0.0;0.0;0.0;0.0;0.0;0.0;;0.0;320.0;0.0;0.0;0.0;5.0;2017-11-30;2017-11-26;;;;43.7587953499596;4.94518912179942;13034;0000;130340000;Z
46899;2018-06;13;13034;2017;30;2.0;SNC PRESTIGE DEVELOPPEMENT;50141626700000;0336CR;0334CR;;3;4000.0;0.0;0.0;0.0;0.0;0.0;0.0;0.0;1.0;0.0;1.0;2.0;1.0;0.0;0.0;0.0;0.0;0.0;0.0;0.0;0.0;0.0;0.0;;0.0;320.0;0.0;0.0;0.0;5.0;2018-06-30;2017-11-26;2018-04-21;;;43.7587953499596;4.94518912179942;13034;0000;130340000;Z
46900;2018-06;13;13034;2018;32;2.0;SCI AMISTA;82011124300011;0358AC;0292AC;;2;5000.0;0.0;0.0;0.0;0.0;0.0;1.0;0.0;1.0;0.0;1.0;2.0;1.0;1.0;0.0;0.0;0.0;0.0;0.0;0.0;0.0;0.0;0.0;;166.0;393.0;0.0;166.0;0.0;12.0;2018-06-30;2018-06-18;;;;43.75587999995605;4.944779977642355;13034;0000;130340000;Z
52955;2018-08;13;13034;2018;32;2.0;SCI TROIS RIVIERES;83478389600014;0384AC;0383AC;;2;1271.0;0.0;0.0;0.0;0.0;0.0;1.0;1.0;1.0;0.0;1.0;2.0;1.0;1.0;0.0;0.0;0.0;0.0;0.0;0.0;0.0;0.0;0.0;;0.0;348.0;0.0;0.0;0.0;5.0;2018-08-31;2018-08-21;;;;43.763675000000035;4.954566324000041;13034;0000;130340000;Z
58057;2018-10;13;13034;2018;10;2.0;SAS FIMIRON;50421414900024;0059CM;;;2;3482.0;0.0;0.0;0.0;0.0;1.0;0.0;0.0;1.0;0.0;1.0;;1.0;1.0;0.0;0.0;0.0;0.0;0.0;0.0;0.0;0.0;0.0;;0.0;232.0;0.0;0.0;0.0;5.0;2018-10-31;2018-10-11;;;;43.75601180086204;4.9557070670086425;13034;0000;130340000;Z
66107;2019-01;13;13034;2018;90;2.0;LE CLOS DES AMANDIERS;8416543380018;0236AC;;;2;3373.0;0.0;0.0;0.0;3.0;2.0;2.0;1.0;0.0;7.0;7.0;2.0;1.0;0.0;1.0;0.0;0.0;0.0;0.0;0.0;0.0;0.0;0.0;;88.0;871.0;0.0;88.0;0.0;12.0;2019-01-31;2019-01-02;;;;43.75845177771738;4.948054680736443;13034;0000;130340000;Z
73890;2019-04;13;13034;2019;10;2.0;SARL AMOVA;82421331800010;0567AD;0356AD;;2;5250.0;0.0;0.0;0.0;0.0;1.0;0.0;0.0;1.0;0.0;1.0;;2.0;0.0;0.0;1.0;0.0;0.0;0.0;0.0;0.0;0.0;0.0;;151.0;254.0;0.0;0.0;0.0;7.0;2019-04-30;2019-04-10;;;;43.76044998120537;4.950120004336412;13034;0000;130340000;Z
81892;2019-07;13;13034;2019;32;2.0;SCI CHALOU;83114898600019;0370CM;0351CM;0349CM;2;4278.0;0.0;0.0;0.0;0.0;0.0;1.0;0.0;1.0;0.0;1.0;2.0;1.0;1.0;0.0;0.0;0.0;0.0;0.0;0.0;0.0;0.0;0.0;;0.0;322.0;0.0;0.0;0.0;5.0;2019-07-31;2019-07-15;;;;43.7559885;4.9447932;13034;0000;130340000;Z
87815;2019-10;13;13034;2019;10;2.0;EARL PEPINIERES MORICELLY;791451008;0023BV;0015BV;0014BV;2;35790.0;0.0;0.0;0.0;0.0;1.0;0.0;0.0;1.0;0.0;1.0;;2.0;1.0;0.0;0.0;0.0;0.0;0.0;0.0;0.0;0.0;0.0;;0.0;180.0;0.0;0.0;0.0;14.0;2019-10-31;2019-10-03;;;;43.76251238355403;4.951473839260198;13034;0000;130340000;Z
102629;2021-03;13;13034;2020;32;2.0;SCI GREEN ALPILLES;;0008AE;0007AE;;2;4500.0;0.0;0.0;0.0;0.0;2.0;0.0;0.0;2.0;0.0;2.0;;1.0;0.0;1.0;0.0;0.0;0.0;0.0;0.0;0.0;0.0;0.0;;196.0;454.0;0.0;196.0;0.0;12.0;2021-03-31;2021-03-04;;;;43.763675000000035;4.954566324000041;13034;0000;130340000;Z
299;2018-04;13;13037;2018;90;2.0;AST GROUPE;39254982000786;110BA;;;1;4166.0;0.0;11.0;13.0;0.0;0.0;0.0;1.0;6.0;18.0;24.0;;;0.0;1.0;0.0;0.0;0.0;0.0;0.0;0.0;0.0;0.0;;170.0;1455.0;0.0;170.0;0.0;12.0;2018-04-30;;;;;43.552779990040136;5.176879989531301;13037;0102;130370102;H
16403;2017-06;13;13037;2016;32;2.0;SCI FM;;432AE;;;3;1000.0;0.0;0.0;0.0;3.0;0.0;0.0;0.0;3.0;0.0;3.0;2.0;1.0;0.0;0.0;1.0;0.0;0.0;0.0;0.0;0.0;0.0;0.0;;0.0;300.0;0.0;0.0;0.0;7.0;2017-06-30;2016-05-30;2017-02-01;;;43.55040044591156;5.22558410334725;13037;0102;130370102;H
24242;2017-09;13;13037;2017;10;2.0;MORGAN;539586958;100AS;;;1;920.0;0.0;0.0;0.0;1.0;0.0;0.0;0.0;1.0;0.0;1.0;;;1.0;0.0;0.0;0.0;0.0;0.0;0.0;0.0;0.0;0.0;;0.0;0.0;100.0;0.0;0.0;10.0;2017-09-30;;;;;43.537649984256205;5.194939973389239;13037;0102;130370102;H
35825;2018-01;13;13037;2018;90;2.0;ELECTRUM;79057359600018;56AI;;;1;2357.0;0.0;0.0;0.0;0.0;0.0;0.0;0.0;1.0;0.0;1.0;;;0.0;0.0;1.0;0.0;0.0;0.0;0.0;0.0;0.0;0.0;;0.0;72.0;0.0;0.0;0.0;14.0;2018-01-31;;;;;43.550520061305974;5.212326902712142;13037;0102;130370102;H
63387;2018-12;13;13037;2018;90;2.0;GAMBETTA PACA;695521468;205AZ;206AZ;207AZ;1;5766.0;0.0;4.0;18.0;6.0;0.0;0.0;0.0;28.0;0.0;28.0;2.0;;0.0;1.0;0.0;0.0;0.0;0.0;0.0;0.0;0.0;0.0;;0.0;1916.0;0.0;0.0;0.0;7.0;2018-12-31;;;;;43.54907851598073;5.179429002732164;13037;0102;130370102;H
76453;2019-05;13;13037;2019;90;2.0;GAMBETTA PACA;695521468;205AZ;206AZ;207AZ;1;5766.0;0.0;4.0;18.0;6.0;0.0;0.0;0.0;28.0;0.0;28.0;2.0;;0.0;1.0;0.0;0.0;0.0;0.0;0.0;0.0;0.0;0.0;;0.0;1916.0;0.0;0.0;0.0;7.0;2019-05-31;;;;;43.544795;5.178595;13037;0102;130370102;H
300;2018-04;13;13043;2018;10;2.0;;;35AO;;;2;76.0;0.0;0.0;1.0;0.0;0.0;0.0;0.0;1.0;0.0;1.0;2.0;2.0;0.0;0.0;1.0;0.0;0.0;0.0;0.0;0.0;0.0;0.0;;0.0;17.0;47.0;0.0;0.0;14.0;2018-04-30;2018-04-05;;;;43.3889075;5.218094;13043;0101;130430101;H
2749;2019-08;13;13043;2019;90;2.0;;;589PAO;;;1;374.0;0.0;0.0;1.0;1.0;0.0;0.0;0.0;2.0;0.0;2.0;2.0;;0.0;0.0;1.0;0.0;0.0;0.0;0.0;0.0;0.0;0.0;;0.0;156.0;0.0;0.0;0.0;7.0;2019-08-31;;;;;43.388630055537746;5.2204200789427375;13043;0101;130430101;H
7524;2017-02;13;13043;2017;90;2.0;VIAL;50938155400021;136AL;;;1;12682.0;0.0;0.0;12.0;0.0;0.0;0.0;0.0;0.0;12.0;12.0;;;0.0;1.0;0.0;0.0;0.0;0.0;0.0;0.0;0.0;0.0;;0.0;891.0;0.0;0.0;0.0;7.0;2017-02-28;;;;;43.39522698208401;5.211897356972587;13043;0101;130430101;H
9571;2017-03;13;13043;2017;90;2.0;VIAL;50938155400021;136AL;;;2;12682.0;0.0;0.0;12.0;0.0;0.0;0.0;0.0;0.0;12.0;12.0;;1.0;0.0;1.0;0.0;0.0;0.0;0.0;0.0;0.0;0.0;0.0;;0.0;891.0;0.0;0.0;0.0;7.0;2017-03-31;2017-03-06;;;;43.39522698208401;5.211897356972587;13043;0101;130430101;H
16405;2017-06;13;13043;2017;30;2.0;SAS JULIADO IMMO;818054512;8AA;;;1;4505.0;0.0;0.0;0.0;0.0;0.0;0.0;0.0;1.0;0.0;1.0;;;1.0;0.0;0.0;0.0;0.0;0.0;0.0;0.0;0.0;0.0;;0.0;374.0;0.0;0.0;0.0;14.0;2017-06-30;;;;;43.38737500000008;5.219470196000032;13043;0101;130430101;H
58060;2018-10;13;13043;2018;90;2.0;;;554PAT;;;1;349.0;0.0;0.0;1.0;0.0;0.0;0.0;0.0;1.0;0.0;1.0;1.0;;1.0;0.0;0.0;0.0;0.0;0.0;0.0;0.0;0.0;0.0;;0.0;77.0;0.0;0.0;0.0;5.0;2018-10-31;;;;;43.39206001413618;5.229000004580712;13043;0101;130430101;H
60902;2018-11;13;13043;2018;32;2.0;;;554PAT;;;2;349.0;0.0;0.0;1.0;0.0;0.0;0.0;0.0;1.0;0.0;1.0;1.0;1.0;1.0;0.0;0.0;0.0;0.0;0.0;0.0;0.0;0.0;0.0;;0.0;77.0;0.0;0.0;0.0;5.0;2018-11-30;2018-11-19;;;;43.39206001413618;5.229000004580712;13043;0101;130430101;H
81894;2019-07;13;13043;2019;90;2.0;;;131AH;;;1;351.0;0.0;0.0;0.0;1.0;0.0;0.0;0.0;1.0;0.0;1.0;2.0;;1.0;0.0;0.0;0.0;0.0;0.0;0.0;0.0;0.0;0.0;;0.0;127.0;0.0;0.0;0.0;5.0;2019-07-31;;;;;43.38469999068636;5.2131899749921615;13043;0101;130430101;H
87819;2019-10;13;13043;2019;32;2.0;SCI SAMUGO;;589PAO;;;2;374.0;0.0;0.0;1.0;1.0;0.0;0.0;0.0;2.0;0.0;2.0;2.0;1.0;0.0;0.0;1.0;0.0;0.0;0.0;0.0;0.0;0.0;0.0;;0.0;156.0;0.0;0.0;0.0;7.0;2019-10-31;2019-10-14;;;;43.388630055537746;5.2204200789427375;13043;0101;130430101;H
301;2018-04;13;13054;2017;10;2.0;CEMEX BETONS SUD EST;399161579;;;;2;13400.0;0.0;0.0;0.0;0.0;0.0;0.0;0.0;1.0;0.0;1.0;;1.0;0.0;0.0;0.0;0.0;0.0;0.0;0.0;0.0;0.0;0.0;;0.0;137.0;0.0;0.0;0.0;14.0;2018-04-30;2018-04-09;;;;43.408829981185875;5.201079968922329;13054;0108;130540108;H
63393;2018-12;13;13054;2018;32;2.0;SCI LES 13 OLIVIERS;53865095300010;0283BL;;;2;2243.0;0.0;4.0;0.0;0.0;0.0;0.0;0.0;4.0;0.0;4.0;;1.0;0.0;0.0;1.0;0.0;0.0;0.0;0.0;0.0;0.0;0.0;;0.0;198.0;0.0;0.0;0.0;7.0;2018-12-31;2018-12-13;;;;43.39923999430576;5.223859970096441;13054;0108;130540108;H
87829;2019-10;13;13054;2019;90;2.0;SCI AROBASE IMMO;82239165200010;0344BK;;;1;780.0;0.0;0.0;0.0;0.0;1.0;0.0;0.0;1.0;0.0;1.0;2.0;;1.0;0.0;0.0;0.0;0.0;0.0;0.0;0.0;0.0;0.0;;0.0;0.0;0.0;0.0;0.0;1.0;2019-10-31;;;;;43.398100013564374;5.226960016985885;13054;0108;130540108;H
302;2018-04;13;13056;2017;32;2.0;SCCV MARTIGUES LA COURONNE;83392090300014;0175DE;;;2;25510.0;0.0;10.0;11.0;5.0;0.0;0.0;0.0;0.0;26.0;26.0;3.0;1.0;0.0;1.0;0.0;0.0;0.0;0.0;0.0;0.0;0.0;0.0;;0.0;1665.0;0.0;0.0;0.0;7.0;2018-04-30;2018-04-26;;;;43.33929260768351;5.052588265293739;13056;0101;130560101;H
303;2018-04;13;13056;2017;32;2.0;SCCV MARTIGUES LA COURONNE;83392090300014;0175DE;;;2;0.0;1.0;20.0;18.0;2.0;0.0;0.0;0.0;0.0;41.0;41.0;3.0;1.0;0.0;1.0;0.0;0.0;0.0;0.0;0.0;0.0;0.0;0.0;;0.0;2400.0;0.0;0.0;0.0;7.0;2018-04-30;2018-04-26;;;;43.33929260768351;5.052588265293739;13056;0101;130560101;H
304;2018-04;13;13056;2018;90;2.0;SCI ENFANTS DE LA COURONNE;78956974600017;0255CV;0256CV;;1;0.0;0.0;0.0;0.0;1.0;0.0;0.0;0.0;1.0;0.0;1.0;1.0;;0.0;0.0;1.0;0.0;0.0;1.0;0.0;0.0;0.0;0.0;;0.0;128.0;0.0;0.0;0.0;5.0;2018-04-30;;;;;43.330217485684656;5.055864168090399;13056;0101;130560101;H
2760;2019-08;13;13056;2019;32;2.0;SCI LOU CABANA;;0867CP;;;2;0.0;0.0;2.0;0.0;0.0;0.0;0.0;0.0;2.0;0.0;2.0;2.0;2.0;0.0;1.0;0.0;0.0;0.0;0.0;0.0;0.0;0.0;0.0;;124.0;70.0;0.0;0.0;0.0;7.0;2019-08-31;2019-08-12;;;;43.3299080345357;5.038540147318781;13056;0101;130560101;H
2761;2019-08;13;13056;2019;90;2.0;TERRE ET MER PROVENCE;84155526;0642CS;0647CS;;1;0.0;0.0;0.0;3.0;1.0;0.0;0.0;0.0;4.0;0.0;4.0;;;0.0;1.0;0.0;0.0;0.0;0.0;0.0;0.0;0.0;0.0;;190.0;634.0;0.0;190.0;0.0;14.0;2019-08-31;;;;;43.33468279007833;5.05225729769251;13056;0101;130560101;H
11918;2017-04;13;13056;2016;10;2.0;;;0450CR;;;3;790.0;0.0;0.0;0.0;1.0;0.0;0.0;0.0;1.0;0.0;1.0;2.0;1.0;1.0;0.0;0.0;0.0;0.0;0.0;0.0;0.0;0.0;0.0;;155.0;82.0;0.0;0.0;0.0;7.0;2017-04-30;2016-08-19;2017-03-07;;;43.333409993598906;5.048079977300063;13056;0101;130560101;H
11919;2017-04;13;13056;2016;90;2.0;;;0544CP;;;2;1480.0;0.0;0.0;5.0;1.0;0.0;0.0;0.0;0.0;6.0;6.0;2.0;1.0;0.0;1.0;0.0;0.0;0.0;0.0;0.0;0.0;0.0;0.0;;76.0;497.0;0.0;0.0;0.0;7.0;2017-04-30;2017-04-07;;;;43.33248567828022;5.04411769451277;13056;0101;130560101;H
16414;2017-06;13;13056;2017;90;2.0;CARRO SAS;535075881;0480CP;0544CP;;1;1480.0;0.0;0.0;5.0;0.0;1.0;0.0;0.0;0.0;6.0;6.0;;;0.0;1.0;0.0;0.0;0.0;0.0;0.0;0.0;0.0;0.0;;76.0;497.0;0.0;0.0;0.0;7.0;2017-06-30;;;;;43.332436443803495;5.047383152459994;13056;0101;130560101;H
26782;2017-10;13;13056;2017;32;2.0;SCI ARTECRIS;;0312CP;;;1;0.0;0.0;1.0;0.0;1.0;0.0;0.0;0.0;2.0;0.0;2.0;3.0;;0.0;0.0;0.0;0.0;0.0;0.0;0.0;0.0;0.0;0.0;;58.0;132.0;0.0;58.0;0.0;12.0;2017-10-31;;;;;43.33115231070269;5.041717295374413;13056;0101;130560101;H
32429;2017-12;13;13056;2017;90;2.0;CARRO SAS;535075881;0480CP;0544CP;;2;1480.0;0.0;0.0;5.0;0.0;1.0;0.0;0.0;6.0;0.0;6.0;2.0;2.0;0.0;0.0;0.0;0.0;0.0;0.0;0.0;0.0;0.0;0.0;;98.0;519.0;0.0;;0.0;12.0;;2017-12-22;;25.0;2017/12;43.332436443803495;5.047383152459994;13056;0101;130560101;H
32431;2017-12;13;13056;2017;90;2.0;SCCV MARTIGUES LA COURONNE;83392090300014;0175DE;;;1;25510.0;0.0;10.0;11.0;5.0;0.0;0.0;0.0;0.0;26.0;26.0;3.0;;0.0;1.0;0.0;0.0;0.0;0.0;0.0;0.0;0.0;0.0;;0.0;1660.0;0.0;;0.0;7.0;;;;0.0;2017/12;43.33929260768351;5.052588265293739;13056;0101;130560101;H
32432;2017-12;13;13056;2017;90;2.0;SCCV MARTIGUES LA COURONNE;83392090300014;0175DE;;;1;0.0;1.0;20.0;18.0;2.0;0.0;0.0;0.0;0.0;41.0;41.0;3.0;;0.0;1.0;0.0;0.0;0.0;0.0;0.0;0.0;0.0;0.0;;0.0;2400.0;0.0;;0.0;7.0;;;;0.0;2017/12;43.33929260768351;5.052588265293739;13056;0101;130560101;H
35831;2018-01;13;13056;2017;32;2.0;SCI ARTECRIS;;0312CP;;;2;0.0;0.0;1.0;0.0;1.0;0.0;0.0;0.0;2.0;0.0;2.0;3.0;1.0;0.0;0.0;0.0;0.0;0.0;0.0;0.0;0.0;0.0;0.0;;58.0;132.0;0.0;58.0;0.0;12.0;2018-01-31;2018-01-19;;;;43.33115231070269;5.041717295374413;13056;0101;130560101;H
44110;2018-05;13;13056;2018;90;2.0;;;0840CP;;;1;0.0;0.0;0.0;0.0;4.0;0.0;0.0;0.0;4.0;0.0;4.0;;;0.0;1.0;0.0;0.0;0.0;0.0;0.0;0.0;0.0;0.0;;0.0;0.0;0.0;0.0;0.0;1.0;2018-05-31;;;;;43.33028855232909;5.0458666916676815;13056;0101;130560101;H
46915;2018-06;13;13056;2018;90;2.0;SAS DAC;52827786600018;0489CM;;;2;950.0;0.0;0.0;1.0;2.0;0.0;0.0;0.0;3.0;0.0;3.0;2.0;1.0;1.0;0.0;0.0;0.0;0.0;0.0;0.0;0.0;0.0;0.0;;0.0;298.0;0.0;0.0;0.0;7.0;2018-06-30;2018-06-08;;;;43.35591566882461;5.030543246207105;13056;0101;130560101;H
46918;2018-06;13;13056;2018;32;2.0;SCI L'EMBELIDO;48411177800011;0022CW;0023CW;0644CW;2;6924.0;0.0;0.0;0.0;1.0;0.0;0.0;0.0;1.0;0.0;1.0;;1.0;1.0;0.0;0.0;0.0;0.0;0.0;0.0;0.0;0.0;0.0;;406.0;166.0;0.0;0.0;0.0;7.0;2018-06-30;2018-06-20;;;;43.34057999930371;5.06783997876002;13056;0101;130560101;H
49901;2018-07;13;13056;2018;90;2.0;SAS SIMER;48882273500012;0831CS;;;1;0.0;0.0;0.0;0.0;0.0;0.0;0.0;0.0;0.0;4.0;4.0;;;0.0;1.0;0.0;0.0;0.0;0.0;0.0;0.0;0.0;0.0;;0.0;200.0;0.0;0.0;0.0;14.0;2018-07-31;;;;;43.33808998732738;5.052260032413642;13056;0101;130560101;H
49902;2018-07;13;13056;2018;90;2.0;EDELIS;33843415200892;0396CP;;;1;0.0;0.0;7.0;9.0;2.0;0.0;0.0;0.0;1.0;17.0;18.0;;;0.0;1.0;0.0;0.0;0.0;0.0;0.0;0.0;0.0;0.0;;100.0;1236.0;0.0;100.0;0.0;12.0;2018-07-31;;;;;43.33048339485287;5.04416456225979;13056;0101;130560101;H
52959;2018-08;13;13056;2018;32;2.0;SCI ENFANTS DE LA COURONNE;78956974600017;0255CV;0256CV;;2;0.0;0.0;0.0;0.0;1.0;0.0;0.0;0.0;1.0;0.0;1.0;1.0;1.0;1.0;0.0;0.0;0.0;0.0;0.0;0.0;0.0;0.0;0.0;;0.0;128.0;0.0;0.0;0.0;5.0;2018-08-31;2018-08-03;;;;43.337305;5.0561621;13056;0101;130560101;H
52960;2018-08;13;13056;2018;32;2.0;SCCV LES VAUCLUSIENS;83500259300019;0442CR;;;2;1705.0;0.0;4.0;9.0;5.0;0.0;0.0;0.0;0.0;18.0;18.0;5.0;1.0;0.0;1.0;0.0;0.0;0.0;0.0;0.0;0.0;0.0;0.0;;0.0;1393.0;0.0;0.0;0.0;7.0;2018-08-31;2018-08-16;;;;43.336877156032145;5.050577763876296;13056;0101;130560101;H
60908;2018-11;13;13056;2018;32;2.0;SCI RESYMAT;49536575100017;0106CP;;;2;0.0;0.0;1.0;0.0;0.0;0.0;0.0;0.0;1.0;0.0;1.0;;2.0;1.0;0.0;0.0;0.0;0.0;0.0;0.0;0.0;0.0;0.0;;0.0;45.0;0.0;0.0;0.0;5.0;2018-11-30;2018-11-07;;;;43.33071001494801;5.0386100192734204;13056;0101;130560101;H
66124;2019-01;13;13056;2018;32;2.0;SCI ANGHIULA;5179334700018;0776DE;;;2;0.0;0.0;0.0;0.0;1.0;0.0;0.0;0.0;1.0;0.0;1.0;;1.0;1.0;0.0;0.0;0.0;0.0;0.0;0.0;0.0;0.0;0.0;;0.0;90.0;0.0;0.0;0.0;5.0;2019-01-31;2019-01-09;;;;43.3418223;5.0553386;13056;0101;130560101;H
73898;2019-04;13;13056;2019;90;2.0;SCI PARADIS;84950294300012;0695CS;;;1;0.0;0.0;0.0;0.0;1.0;0.0;0.0;0.0;1.0;0.0;1.0;2.0;;1.0;0.0;0.0;0.0;0.0;0.0;0.0;0.0;0.0;0.0;;110.0;183.0;0.0;110.0;0.0;12.0;2019-04-30;;;;;43.33731600178336;5.053141378231288;13056;0101;130560101;H
73899;2019-04;13;13056;2019;90;2.0;SCI MANUEL;84940476900010;0695CS;;;1;0.0;0.0;0.0;0.0;1.0;0.0;0.0;0.0;1.0;0.0;1.0;2.0;;1.0;0.0;0.0;0.0;0.0;0.0;0.0;0.0;0.0;0.0;;15.0;173.0;0.0;15.0;0.0;12.0;2019-04-30;;;;;43.33731600178336;5.053141378231288;13056;0101;130560101;H
76458;2019-05;13;13056;2018;30;2.0;SA EDELIS;33843415200892;0396CP;;;2;2225.0;0.0;3.0;4.0;5.0;2.0;0.0;0.0;1.0;13.0;14.0;3.0;1.0;0.0;1.0;0.0;0.0;0.0;0.0;0.0;0.0;0.0;0.0;;100.0;1066.0;0.0;100.0;0.0;12.0;2019-05-31;2019-05-13;;;;43.332436443803495;5.047383152459994;13056;0101;130560101;H
76459;2019-05;13;13056;2019;32;2.0;SCI LE PETIT MAZET;79742925500012;0984CW;;;2;0.0;0.0;0.0;1.0;0.0;0.0;0.0;0.0;1.0;0.0;1.0;;1.0;1.0;0.0;0.0;0.0;0.0;0.0;0.0;0.0;0.0;0.0;;0.0;70.0;0.0;0.0;0.0;5.0;2019-05-31;2019-05-07;;;;43.337747583624214;5.070063013300743;13056;0101;130560101;H
76460;2019-05;13;13056;2019;90;2.0;SCI PARADIS;84950294300012;0695CS;;;1;0.0;0.0;0.0;0.0;0.0;1.0;0.0;0.0;1.0;0.0;1.0;;;1.0;0.0;0.0;0.0;0.0;0.0;0.0;0.0;0.0;0.0;;110.0;179.0;0.0;110.0;0.0;12.0;2019-05-31;;;;;43.33731600178336;5.053141378231288;13056;0101;130560101;H
79137;2019-06;13;13056;2019;32;2.0;SCI PARADIS;84950294300012;0695CS;;;2;0.0;0.0;0.0;0.0;1.0;0.0;0.0;0.0;1.0;0.0;1.0;2.0;1.0;1.0;0.0;0.0;0.0;0.0;0.0;0.0;0.0;0.0;0.0;;110.0;183.0;0.0;110.0;0.0;12.0;2019-06-30;2019-06-03;;;;43.33731600178336;5.053141378231288;13056;0101;130560101;H
79138;2019-06;13;13056;2019;32;2.0;SCI MANUEL;849404769;0695CS;;;2;0.0;0.0;0.0;0.0;1.0;0.0;0.0;0.0;1.0;0.0;1.0;2.0;1.0;1.0;0.0;0.0;0.0;0.0;0.0;0.0;0.0;0.0;0.0;;15.0;173.0;0.0;15.0;0.0;12.0;2019-06-30;2019-06-28;;;;43.33731600178336;5.053141378231288;13056;0101;130560101;H
79139;2019-06;13;13056;2019;90;2.0;TERRE ET MER PROVENCE;84115552600012;0647CS;;;1;0.0;0.0;2.0;2.0;3.0;0.0;0.0;0.0;0.0;7.0;7.0;;;0.0;1.0;0.0;0.0;0.0;0.0;0.0;0.0;0.0;0.0;;190.0;844.0;0.0;190.0;0.0;14.0;2019-06-30;;;;;43.33468279007833;5.05225729769251;13056;0101;130560101;H
81900;2019-07;13;13056;2019;32;2.0;SCI PARADIS;84950294300012;0695CS;;;2;0.0;0.0;0.0;0.0;0.0;1.0;0.0;0.0;1.0;0.0;1.0;;1.0;1.0;0.0;0.0;0.0;0.0;0.0;0.0;0.0;0.0;0.0;;110.0;179.0;0.0;110.0;0.0;12.0;2019-07-31;2019-07-18;;;;43.33731600178336;5.053141378231288;13056;0101;130560101;H
100021;2020-02;13;13056;2020;90;2.0;SCI SASOMAMEDI;450568671;0882CP;;;1;0.0;0.0;1.0;1.0;0.0;0.0;0.0;0.0;0.0;2.0;2.0;;;0.0;1.0;0.0;0.0;0.0;0.0;0.0;0.0;0.0;0.0;;8.0;76.0;0.0;0.0;0.0;7.0;2020-02-29;;;;;43.331099982993265;5.038489990419947;13056;0101;130560101;H
305;2018-04;13;13069;2017;32;2.0;SCCV LE SAINT JOSEPH;75035899600015;16AM;390AM;6AM;2;3878.0;0.0;8.0;8.0;11.0;0.0;0.0;1.0;7.0;20.0;27.0;1.0;1.0;0.0;1.0;0.0;0.0;0.0;0.0;0.0;0.0;0.0;0.0;;193.0;2122.0;0.0;193.0;0.0;12.0;2018-04-30;2018-04-04;;;;43.63544266084634;5.16114753541889;13069;0102;130690102;H
16421;2017-06;13;13069;2017;90;2.0;;;16AM;390AM;;1;3488.0;0.0;8.0;8.0;11.0;0.0;0.0;1.0;20.0;7.0;27.0;2.0;;0.0;0.0;1.0;0.0;0.0;0.0;0.0;0.0;0.0;0.0;;193.0;2103.0;0.0;193.0;0.0;12.0;2017-06-30;;;;;43.63544266084634;5.16114753541889;13069;0102;130690102;H
32435;2017-12;13;13069;2017;90;2.0;SCCV LE SAINT JOSEPH;75035899600015;16AM;390AM;6AM;1;3878.0;0.0;8.0;8.0;11.0;0.0;0.0;1.0;7.0;20.0;27.0;1.0;;0.0;1.0;0.0;0.0;0.0;0.0;0.0;0.0;0.0;0.0;;193.0;2122.0;0.0;;0.0;12.0;;;;193.0;2017/12;43.63544266084634;5.16114753541889;13069;0102;130690102;H
55507;2018-09;13;13069;2018;90;2.0;;;1011AAS;;;1;1621.0;0.0;0.0;0.0;5.0;0.0;0.0;0.0;5.0;0.0;5.0;1.0;;0.0;1.0;0.0;0.0;0.0;0.0;0.0;0.0;0.0;0.0;;0.0;396.0;0.0;0.0;0.0;7.0;2018-09-30;;;;;43.63859001716534;5.162709963118061;13069;0102;130690102;H
63395;2018-12;13;13069;2018;90;2.0;;;111AS;271AS;702AS;1;3551.0;0.0;0.0;0.0;1.0;2.0;1.0;0.0;4.0;0.0;4.0;2.0;;0.0;1.0;0.0;0.0;0.0;0.0;0.0;0.0;0.0;0.0;;125.0;654.0;0.0;0.0;0.0;7.0;2018-12-31;;;;;43.63742917263688;5.159084921819852;13069;0102;130690102;H
63396;2018-12;13;13069;2018;90;2.0;;;450AV;;;1;4000.0;0.0;0.0;0.0;0.0;1.0;0.0;0.0;1.0;0.0;1.0;2.0;;1.0;0.0;0.0;0.0;0.0;0.0;0.0;0.0;0.0;0.0;;0.0;128.0;0.0;0.0;0.0;5.0;2018-12-31;;;;;43.63342999184198;5.156350026445637;13069;0102;130690102;H
66132;2019-01;13;13069;2018;10;2.0;;;450AV;;;2;4000.0;0.0;0.0;0.0;0.0;1.0;0.0;0.0;1.0;0.0;1.0;2.0;1.0;1.0;0.0;0.0;0.0;0.0;0.0;0.0;0.0;0.0;0.0;;0.0;128.0;0.0;0.0;0.0;5.0;2019-01-31;2019-01-25;;;;43.63342999184198;5.156350026445637;13069;0102;130690102;H
71102;2019-03;13;13069;2018;90;2.0;;;111AS;271AS;702AS;2;3551.0;0.0;0.0;0.0;1.0;2.0;1.0;0.0;4.0;0.0;4.0;2.0;1.0;0.0;1.0;0.0;0.0;0.0;0.0;0.0;0.0;0.0;0.0;;125.0;654.0;0.0;0.0;0.0;7.0;2019-03-31;2019-03-15;;;;43.63742917263688;5.159084921819852;13069;0102;130690102;H
306;2018-04;13;13074;2017;30;2.0;MARIGNAN  RESIDENCES;41975025200027;0050AD;0051AD;0052AD;2;104238.0;0.0;30.0;62.0;41.0;7.0;0.0;0.0;35.0;105.0;140.0;2.0;1.0;0.0;1.0;0.0;0.0;0.0;0.0;0.0;0.0;0.0;0.0;;0.0;10107.0;0.0;0.0;0.0;7.0;2018-04-30;2017-12-05;;;;43.64872677374494;5.604766638776306;13074;0000;130740000;Z
24252;2017-09;13;13074;2017;31;2.0;COGEDIM PROVENCE;;0131AM;0133AM;;2;6281.0;0.0;11.0;17.0;13.0;3.0;0.0;0.0;0.0;44.0;44.0;4.0;1.0;0.0;0.0;1.0;0.0;0.0;0.0;0.0;0.0;0.0;0.0;;0.0;3127.0;0.0;0.0;0.0;7.0;2017-09-30;2017-09-18;;;;43.6440537;5.5783468;13074;0000;130740000;Z
100026;2020-02;13;13074;2019;30;2.0;BOUYGUES IMMOBILIER;56209154601090;0134AM;0137AM;;2;6210.0;0.0;0.0;0.0;24.0;0.0;0.0;0.0;24.0;0.0;24.0;1.0;1.0;0.0;1.0;0.0;0.0;0.0;0.0;0.0;0.0;0.0;0.0;;0.0;2065.0;0.0;0.0;0.0;7.0;2020-02-29;2020-02-11;;;;43.64502301339388;5.576547560502392;13074;0000;130740000;Z
307;2018-04;13;13076;2018;90;2.0;BOST - M. COUNE Jean-Marie;43842628000022;200BV;;;1;1508.0;0.0;0.0;0.0;0.0;0.0;0.0;0.0;1.0;0.0;1.0;;;0.0;0.0;0.0;0.0;0.0;0.0;0.0;0.0;0.0;0.0;;0.0;190.0;0.0;0.0;0.0;5.0;2018-04-30;;;;;43.804740388449886;4.996956544685132;13076;0000;130760000;Z
7528;2017-02;13;13076;2017;10;2.0;;;37AD;;;1;14688.0;0.0;0.0;0.0;0.0;1.0;0.0;0.0;1.0;0.0;1.0;;;1.0;0.0;0.0;0.0;0.0;0.0;0.0;0.0;0.0;0.0;;0.0;150.0;0.0;0.0;0.0;14.0;2017-02-28;;;;;43.830759983430966;4.996100023852705;13076;0000;130760000;Z
46929;2018-06;13;13076;2018;32;2.0;SCI BOST;43842628000022;200BV;;;2;1508.0;0.0;0.0;0.0;0.0;1.0;0.0;0.0;1.0;0.0;1.0;;1.0;1.0;0.0;0.0;0.0;0.0;0.0;0.0;0.0;0.0;0.0;;0.0;190.0;0.0;0.0;0.0;5.0;2018-06-30;2018-06-26;;;;43.8045841;4.9968612;13076;0000;130760000;Z
46930;2018-06;13;13076;2018;90;2.0;;;360BT;;;1;881.0;0.0;6.0;2.0;0.0;0.0;0.0;0.0;0.0;8.0;8.0;;;0.0;0.0;1.0;0.0;0.0;0.0;0.0;0.0;0.0;0.0;;0.0;505.0;0.0;0.0;0.0;7.0;2018-06-30;;;;;43.81795500000004;5.003388049000023;13076;0000;130760000;Z
49911;2018-07;13;13076;2018;30;2.0;TDB PROMOTION;;360BT;;;2;881.0;0.0;6.0;2.0;0.0;0.0;0.0;0.0;0.0;8.0;8.0;;1.0;0.0;0.0;1.0;0.0;0.0;0.0;0.0;0.0;0.0;0.0;;0.0;505.0;0.0;0.0;0.0;7.0;2018-07-31;2018-07-30;;;;43.80582708449074;4.997051817700164;13076;0000;130760000;Z
55510;2018-09;13;13076;2018;10;2.0;;;194BT;;;2;0.0;0.0;0.0;0.0;0.0;1.0;0.0;0.0;1.0;0.0;1.0;;1.0;1.0;0.0;0.0;0.0;0.0;0.0;0.0;0.0;0.0;0.0;;0.0;149.0;0.0;0.0;0.0;5.0;2018-09-30;2018-09-11;;;;43.804740388449886;4.996956544685132;13076;0000;130760000;Z
85132;2019-09;13;13076;2019;90;2.0;;;156BL;68BL;69BL;1;4870.0;0.0;12.0;21.0;0.0;0.0;0.0;2.0;0.0;33.0;33.0;2.0;;0.0;0.0;1.0;0.0;0.0;0.0;0.0;1.0;0.0;0.0;;490.0;2324.0;0.0;490.0;0.0;12.0;2019-09-30;;;;;43.8078584;4.9947064;13076;0000;130760000;Z
87837;2019-10;13;13076;2019;90;2.0;;;203BR;;;1;1000.0;2.0;2.0;6.0;0.0;0.0;0.0;0.0;0.0;10.0;10.0;;;0.0;0.0;1.0;0.0;0.0;0.0;0.0;0.0;0.0;0.0;;0.0;522.0;0.0;0.0;0.0;7.0;2019-10-31;;;;;43.80651370912195;4.991228035368164;13076;0000;130760000;Z
94067;2019-12;13;13076;2019;90;2.0;;;156BL;68BL;69BL;2;4870.0;0.0;12.0;21.0;0.0;0.0;0.0;2.0;0.0;33.0;33.0;2.0;1.0;0.0;0.0;1.0;0.0;0.0;0.0;0.0;0.0;0.0;0.0;;490.0;2324.0;0.0;490.0;0.0;12.0;2019-12-31;2019-12-16;;;;43.80872999495301;4.9933400307751015;13076;0000;130760000;Z
94068;2019-12;13;13076;2019;20;2.0;GRAND DELTA HABITAT;;203BR;;;2;1000.0;2.0;2.0;6.0;0.0;0.0;0.0;0.0;0.0;10.0;10.0;;1.0;0.0;0.0;1.0;0.0;0.0;0.0;0.0;0.0;0.0;0.0;;0.0;522.0;0.0;0.0;0.0;7.0;2019-12-31;2019-12-10;;;;43.80651370912195;4.991228035368164;13076;0000;130760000;Z
94069;2019-12;13;13076;2019;90;2.0;;;184BR;43BR;90BR;1;2435.0;0.0;0.0;0.0;0.0;0.0;0.0;0.0;0.0;6.0;6.0;;;0.0;0.0;1.0;0.0;0.0;0.0;0.0;0.0;0.0;0.0;;292.0;7.0;333.0;0.0;0.0;14.0;2019-12-31;;;;;43.8083763;4.9982831;13076;0000;130760000;Z
308;2018-04;13;13086;2017;90;2.0;;;487AT;290AV;291AV;2;4054.0;0.0;0.0;1.0;1.0;0.0;0.0;0.0;2.0;0.0;2.0;;1.0;0.0;0.0;1.0;0.0;0.0;0.0;0.0;0.0;0.0;0.0;;0.0;159.0;0.0;0.0;0.0;7.0;2018-04-30;2018-03-07;;;;43.332847109701426;5.604989251872236;13086;0103;130860103;H
19045;2017-07;13;13086;2017;32;2.0;SCI NIEDDU;833670987;489AT;;;1;4179.0;0.0;0.0;1.0;1.0;0.0;0.0;0.0;2.0;0.0;2.0;;;0.0;0.0;1.0;0.0;0.0;0.0;0.0;0.0;0.0;0.0;;0.0;158.0;0.0;0.0;0.0;7.0;2017-07-31;;;;;43.337361351386086;5.602654842975012;13086;0103;130860103;H
26801;2017-10;13;13086;2017;32;2.0;SCI NIEDDU;833670987;489AT;;;2;4179.0;0.0;0.0;1.0;1.0;0.0;0.0;0.0;2.0;0.0;2.0;;1.0;0.0;0.0;1.0;0.0;0.0;0.0;0.0;0.0;0.0;0.0;;0.0;158.0;0.0;0.0;0.0;7.0;2017-10-31;2017-08-27;;;;43.337361351386086;5.602654842975012;13086;0103;130860103;H
29650;2017-11;13;13086;2017;90;2.0;;;487AT;290AV;291AV;1;4054.0;0.0;0.0;1.0;1.0;0.0;0.0;0.0;2.0;0.0;2.0;;;0.0;0.0;1.0;0.0;0.0;0.0;0.0;0.0;0.0;0.0;;0.0;159.0;0.0;0.0;0.0;7.0;2017-11-30;;;;;43.332847109701426;5.604989251872236;13086;0103;130860103;H
32442;2017-12;13;13086;2016;10;2.0;;;204AT;205AT;231AT;2;4000.0;0.0;0.0;0.0;0.0;1.0;0.0;0.0;1.0;0.0;1.0;;1.0;0.0;0.0;0.0;0.0;0.0;0.0;0.0;0.0;0.0;0.0;;0.0;150.0;0.0;;0.0;5.0;;2017-05-29;;0.0;2017/12;43.33725192995472;5.602842077695238;13086;0103;130860103;H
46932;2018-06;13;13086;2018;90;2.0;;;487AT;290AV;291AV;1;4138.0;0.0;0.0;2.0;0.0;0.0;0.0;0.0;2.0;0.0;2.0;;;1.0;0.0;0.0;0.0;0.0;0.0;0.0;0.0;0.0;0.0;;0.0;155.0;0.0;0.0;0.0;7.0;2018-06-30;;;;;43.332847109701426;5.604989251872236;13086;0103;130860103;H
73910;2019-04;13;13086;2019;90;2.0;;;787BK;788BK;;1;500.0;0.0;0.0;1.0;0.0;0.0;0.0;0.0;1.0;0.0;1.0;;;1.0;0.0;0.0;0.0;0.0;0.0;0.0;0.0;0.0;0.0;;0.0;78.0;0.0;0.0;0.0;5.0;2019-04-30;;;;;43.33271002086471;5.595940028129121;13086;0103;130860103;H
81911;2019-07;13;13086;2019;32;2.0;;;787BK;788BK;;2;500.0;0.0;0.0;1.0;0.0;0.0;0.0;0.0;1.0;0.0;1.0;;1.0;1.0;0.0;0.0;0.0;0.0;0.0;0.0;0.0;0.0;0.0;;0.0;78.0;0.0;0.0;0.0;5.0;2019-07-31;2019-07-23;;;;43.33271002086471;5.595940028129121;13086;0103;130860103;H
309;2018-04;13;13098;2018;90;2.0;LA SALAMANDRE;75044052100011;277AO;;;1;1775.0;0.0;0.0;0.0;1.0;0.0;0.0;0.0;1.0;0.0;1.0;2.0;;1.0;0.0;0.0;0.0;0.0;0.0;0.0;0.0;0.0;0.0;;0.0;80.0;0.0;0.0;0.0;14.0;2018-04-30;;;;;43.43771705;5.034279772402696;13098;0102;130980102;H
9596;2017-03;13;13098;2017;90;2.0;MANI;49528730200014;14AO;;;1;1492.0;0.0;0.0;1.0;0.0;0.0;0.0;0.0;1.0;0.0;1.0;1.0;;1.0;0.0;0.0;0.0;0.0;0.0;0.0;0.0;0.0;0.0;;0.0;66.0;0.0;0.0;0.0;7.0;2017-03-31;;;;;43.437920004799;5.038529972098075;13098;0102;130980102;H
38518;2018-02;13;13098;2017;10;2.0;REUBAT;45094788200012;92AN;93AN;;2;2638.0;0.0;0.0;1.0;0.0;0.0;0.0;0.0;1.0;0.0;1.0;2.0;2.0;1.0;0.0;0.0;0.0;0.0;0.0;0.0;0.0;0.0;0.0;;80.0;0.0;80.0;0.0;0.0;14.0;;2018-02-02;;;2018-02-28;43.44214149559152;5.025776833337659;13098;0102;130980102;H
73914;2019-04;13;13098;2019;90;2.0;EMF;53835742700011;247AO;;;1;1508.0;0.0;0.0;1.0;0.0;0.0;0.0;0.0;1.0;0.0;1.0;2.0;;1.0;0.0;0.0;0.0;0.0;0.0;0.0;0.0;0.0;0.0;;0.0;90.0;0.0;0.0;0.0;7.0;2019-04-30;;;;;43.43823998395271;5.038680008164931;13098;0102;130980102;H
102648;2021-03;13;13098;2021;90;2.0;;;392AR;;;1;462.0;0.0;0.0;0.0;1.0;0.0;0.0;0.0;1.0;0.0;1.0;2.0;;1.0;0.0;0.0;0.0;0.0;0.0;0.0;0.0;0.0;0.0;;0.0;130.0;0.0;0.0;0.0;5.0;2021-03-31;;;;;43.46826664158746;5.021275417329025;13098;0102;130980102;H
310;2018-04;13;13100;2018;90;2.0;LES DEUX COLLINES;47935640400026;177AS;;;1;486.0;0.0;0.0;0.0;0.0;0.0;0.0;0.0;1.0;0.0;1.0;;;0.0;1.0;0.0;0.0;0.0;0.0;0.0;0.0;0.0;0.0;;0.0;95.0;0.0;0.0;0.0;5.0;2018-04-30;;;;;43.7793363901461;4.835044772816968;13100;0102;131000102;H
2774;2019-08;13;13100;2019;10;2.0;LES ALPILLES;840579890;467AS;470AS;;2;503.0;0.0;0.0;0.0;1.0;0.0;0.0;0.0;1.0;0.0;1.0;1.0;1.0;1.0;0.0;0.0;0.0;0.0;0.0;0.0;0.0;0.0;0.0;;0.0;111.0;0.0;0.0;0.0;5.0;2019-08-31;2019-08-22;;;;43.77943000466536;4.836429965140496;13100;0102;131000102;H
9599;2017-03;13;13100;2017;90;2.0;;;162AP;209AP;;1;4197.0;0.0;10.0;9.0;1.0;0.0;0.0;4.0;8.0;12.0;20.0;2.0;;0.0;1.0;0.0;0.0;0.0;0.0;0.0;0.0;0.0;0.0;;862.0;1275.0;0.0;862.0;0.0;12.0;2017-03-31;;;;;43.78374108347455;4.83748204210596;13100;0102;131000102;H
19049;2017-07;13;13100;2017;10;2.0;Investissements Torment;41411215100033;511AO;;;2;295.0;0.0;0.0;0.0;1.0;0.0;0.0;0.0;1.0;0.0;1.0;;1.0;0.0;1.0;0.0;0.0;0.0;0.0;0.0;0.0;0.0;0.0;;0.0;107.0;0.0;0.0;0.0;5.0;2017-07-31;2017-07-05;;;;43.78699999478971;4.843440002223218;13100;0102;131000102;H
24259;2017-09;13;13100;2017;90;2.0;;;162AP;209AP;;1;4197.0;0.0;10.0;9.0;1.0;0.0;0.0;4.0;8.0;12.0;20.0;;;0.0;1.0;0.0;0.0;0.0;0.0;0.0;0.0;0.0;0.0;;862.0;1275.0;0.0;862.0;0.0;12.0;2017-09-30;;;;;43.78410999839386;4.837569987791397;13100;0102;131000102;H
29655;2017-11;13;13100;2017;90;2.0;;;162AP;209AP;;2;4197.0;0.0;10.0;9.0;1.0;0.0;0.0;4.0;8.0;12.0;20.0;;1.0;0.0;1.0;0.0;0.0;0.0;0.0;0.0;0.0;0.0;0.0;;862.0;1275.0;0.0;862.0;0.0;12.0;2017-11-30;2017-11-28;;;;43.7852334;4.8372737;13100;0102;131000102;H
46937;2018-06;13;13100;2018;10;2.0;LES DEUX COLLINES;47935640400026;177AS;;;2;486.0;0.0;0.0;0.0;1.0;0.0;0.0;0.0;1.0;0.0;1.0;;1.0;0.0;1.0;0.0;0.0;0.0;0.0;0.0;0.0;0.0;0.0;;0.0;95.0;0.0;0.0;0.0;5.0;2018-06-30;2018-06-18;;;;43.7793363901461;4.835044772816968;13100;0102;131000102;H
58089;2018-10;13;13100;2018;90;2.0;TIJELOU;84223361100016;113AR;;;1;2685.0;0.0;0.0;0.0;0.0;1.0;0.0;0.0;1.0;0.0;1.0;;;1.0;0.0;0.0;0.0;0.0;0.0;0.0;0.0;0.0;0.0;;22.0;266.0;0.0;22.0;0.0;12.0;2018-10-31;;;;;43.78304762580408;4.839405505831355;13100;0102;131000102;H
63411;2018-12;13;13100;2018;90;2.0;;;274AR;;;1;1013.0;0.0;0.0;0.0;0.0;1.0;0.0;0.0;1.0;0.0;1.0;2.0;;1.0;0.0;0.0;0.0;0.0;0.0;0.0;0.0;0.0;0.0;;0.0;206.0;0.0;0.0;0.0;5.0;2018-12-31;;;;;43.78009005858567;4.838110075722497;13100;0102;131000102;H
63412;2018-12;13;13100;2018;90;2.0;SCI DES ALPINES;84455393300012;34AV;;;1;530.0;0.0;0.0;0.0;0.0;0.0;0.0;0.0;3.0;0.0;3.0;;;0.0;1.0;0.0;0.0;0.0;0.0;0.0;0.0;0.0;0.0;;0.0;276.0;0.0;0.0;0.0;7.0;2018-12-31;;;;;43.7839584;4.8273888;13100;0102;131000102;H
66138;2019-01;13;13100;2019;90;2.0;ARCALADE IMMOBILIER;81425213600019;140BN;141BN;143BN;1;11132.0;0.0;0.0;2.0;8.0;2.0;1.0;0.0;0.0;13.0;13.0;;;0.0;1.0;0.0;0.0;0.0;0.0;0.0;0.0;0.0;0.0;;621.0;165.0;1011.0;0.0;0.0;14.0;2019-01-31;;;;;43.78151500000007;4.842942279000056;13100;0102;131000102;H
73917;2019-04;13;13100;2019;90;2.0;ALPILLES DEVELOPPEMENT ET AMENAGEMENT;49263157700011;6AK;;;1;830.0;0.0;0.0;0.0;0.0;1.0;0.0;0.0;1.0;0.0;1.0;2.0;;1.0;0.0;0.0;0.0;0.0;0.0;0.0;0.0;0.0;0.0;;0.0;170.0;0.0;0.0;0.0;5.0;2019-04-30;;;;;43.78988001672079;4.823830036830088;13100;0102;131000102;H
76470;2019-05;13;13100;2018;32;2.0;;;274AR;;;2;1013.0;0.0;0.0;0.0;0.0;1.0;0.0;0.0;1.0;0.0;1.0;2.0;1.0;1.0;0.0;0.0;0.0;0.0;0.0;0.0;0.0;0.0;0.0;;0.0;206.0;0.0;0.0;0.0;5.0;2019-05-31;2019-05-13;;;;43.78009005858567;4.838110075722497;13100;0102;131000102;H
81915;2019-07;13;13100;2019;90;2.0;DES ALPINES;844553933;34AV;;;1;530.0;0.0;0.0;0.0;0.0;3.0;0.0;0.0;3.0;0.0;3.0;;;0.0;0.0;1.0;0.0;0.0;0.0;0.0;0.0;0.0;0.0;;0.0;276.0;0.0;0.0;0.0;7.0;2019-07-31;;;;;43.78374999565247;4.826149979990987;13100;0102;131000102;H
85136;2019-09;13;13100;2019;10;2.0;ALPILLES DEVELOPPEMENT ET AMENAGEMENT;49263157700011;6AK;;;2;830.0;0.0;0.0;0.0;0.0;1.0;0.0;0.0;1.0;0.0;1.0;2.0;1.0;1.0;0.0;0.0;0.0;0.0;0.0;0.0;0.0;0.0;0.0;;0.0;170.0;0.0;0.0;0.0;5.0;2019-09-30;2019-09-06;;;;43.79190998794135;4.817049999170507;13100;0102;131000102;H
85138;2019-09;13;13100;2019;90;2.0;DES ALPINES;84455393300012;34AV;;;2;530.0;0.0;0.0;0.0;0.0;3.0;0.0;0.0;3.0;0.0;3.0;;1.0;0.0;0.0;1.0;0.0;0.0;0.0;0.0;0.0;0.0;0.0;;0.0;276.0;0.0;0.0;0.0;7.0;2019-09-30;2019-09-18;;;;43.7839584;4.8273888;13100;0102;131000102;H
85139;2019-09;13;13100;2019;90;2.0;SA RESTHOLUX;34360297500025;41AR;;;1;2985.0;0.0;0.0;1.0;0.0;0.0;0.0;0.0;1.0;0.0;1.0;1.0;;1.0;0.0;0.0;0.0;0.0;0.0;0.0;0.0;0.0;0.0;;124.0;120.0;0.0;0.0;0.0;7.0;2019-09-30;;;;;43.7848499947157;4.840959964711658;13100;0102;131000102;H
94077;2019-12;13;13100;2019;90;2.0;DB CIGALO SCCV;75015527700023;234AR;;;1;8752.0;0.0;0.0;0.0;0.0;0.0;1.0;0.0;1.0;0.0;1.0;2.0;;0.0;1.0;0.0;0.0;0.0;0.0;0.0;0.0;0.0;0.0;;0.0;269.0;0.0;0.0;0.0;5.0;2019-12-31;;;;;43.78492694810987;4.841226652271727;13100;0102;131000102;H
94078;2019-12;13;13100;2019;90;2.0;DB CIGALO SCCV;75015527700023;234AR;;;1;8752.0;0.0;0.0;0.0;0.0;0.0;1.0;0.0;1.0;0.0;1.0;2.0;;0.0;1.0;0.0;0.0;0.0;0.0;0.0;0.0;0.0;0.0;;0.0;269.0;0.0;0.0;0.0;5.0;2019-12-31;;;;;43.78492694810987;4.841226652271727;13100;0102;131000102;H
97341;2020-01;13;13100;2020;90;2.0;DU VENTOUX;514896190;537 AAO;68AO;;1;974.0;0.0;0.0;0.0;0.0;1.0;0.0;0.0;1.0;0.0;1.0;2.0;;1.0;0.0;0.0;0.0;0.0;0.0;0.0;0.0;0.0;0.0;;46.0;185.0;0.0;0.0;0.0;7.0;2020-01-31;;;;;43.78591003305554;4.844460079839678;13100;0102;131000102;H
100030;2020-02;13;13100;2019;32;2.0;DB CIGALO SCCV;75015527700023;234AR;;;2;8752.0;0.0;0.0;0.0;0.0;0.0;1.0;0.0;1.0;0.0;1.0;2.0;1.0;0.0;1.0;0.0;0.0;0.0;0.0;0.0;0.0;0.0;0.0;;0.0;269.0;0.0;0.0;0.0;5.0;2020-02-29;2020-02-12;;;;43.78492694810987;4.841226652271727;13100;0102;131000102;H
100031;2020-02;13;13100;2019;32;2.0;DB CIGALO SCCV;75015527700023;234AR;;;2;8752.0;0.0;0.0;0.0;0.0;0.0;1.0;0.0;1.0;0.0;1.0;2.0;1.0;0.0;1.0;0.0;0.0;0.0;0.0;0.0;0.0;0.0;0.0;;0.0;269.0;0.0;0.0;0.0;5.0;2020-02-29;2020-02-12;;;;43.78492694810987;4.841226652271727;13100;0102;131000102;H
311;2018-04;13;13100;2018;90;2.0;LES ANTIQUES;4087432700011;160AE;;;1;3791.0;0.0;0.0;0.0;0.0;0.0;0.0;0.0;1.0;0.0;1.0;;;0.0;0.0;0.0;0.0;0.0;0.0;0.0;0.0;0.0;0.0;;666.0;96.0;0.0;0.0;0.0;7.0;2018-04-30;;;;;43.78694999673726;4.832050001636162;13100;0101;131000101;H
9597;2017-03;13;13100;2016;90;2.0;ROSE;42190591000002;139AK;;;2;1000.0;0.0;0.0;2.0;0.0;0.0;0.0;0.0;2.0;0.0;2.0;;2.0;1.0;0.0;0.0;0.0;0.0;0.0;0.0;0.0;0.0;0.0;;0.0;0.0;65.0;0.0;0.0;14.0;2017-03-31;2017-03-08;;;;43.7888787;4.827427;13100;0101;131000101;H
11929;2017-04;13;13100;2017;10;2.0;ROBERT ET TROUPILLON;82503683300010;300AB;;;1;90.0;0.0;0.0;0.0;1.0;0.0;0.0;0.0;1.0;0.0;1.0;;;1.0;0.0;0.0;0.0;0.0;0.0;0.0;0.0;0.0;0.0;;131.0;0.0;80.0;0.0;80.0;12.0;2017-04-30;;;;;43.788219980796896;4.8303199768207605;13100;0101;131000101;H
21612;2017-08;13;13100;2017;90;2.0;ROBERT ET TROUPILLON;82503683300010;300AB;;;1;90.0;1.0;0.0;0.0;1.0;0.0;0.0;0.0;0.0;2.0;2.0;3.0;;0.0;0.0;1.0;0.0;0.0;0.0;0.0;0.0;0.0;0.0;;22.0;0.0;74.0;0.0;0.0;14.0;2017-08-31;;;;;43.7876586;4.8303803;13100;0101;131000101;H
29654;2017-11;13;13100;2017;90;2.0;ROBERT ET TROUPILLON;82503683300010;300AB;;;2;90.0;1.0;0.0;0.0;1.0;0.0;0.0;0.0;0.0;2.0;2.0;3.0;2.0;0.0;0.0;1.0;0.0;0.0;0.0;0.0;0.0;0.0;0.0;;22.0;0.0;74.0;0.0;0.0;14.0;2017-11-30;2017-11-14;;;;43.788219980796896;4.8303199768207605;13100;0101;131000101;H
32448;2017-12;13;13100;2017;90;2.0;CHARME ET PROVENCE SARL;4244010650042M;111AI;;;1;1247.0;0.0;0.0;0.0;6.0;0.0;0.0;0.0;6.0;0.0;6.0;2.0;;0.0;1.0;0.0;0.0;0.0;0.0;0.0;0.0;0.0;0.0;;0.0;714.0;0.0;;0.0;7.0;;;;0.0;2017/12;43.7875847;4.8286251;13100;0101;131000101;H
38519;2018-02;13;13100;2018;90;2.0;AMY IMMOBILIERE;49060541700016;243AM;;;1;763.0;0.0;0.0;0.0;0.0;0.0;0.0;0.0;1.0;0.0;1.0;;;0.0;0.0;0.0;0.0;0.0;0.0;0.0;0.0;0.0;0.0;;0.0;55.0;0.0;0.0;0.0;7.0;;;;;2018-02-28;43.79136998382927;4.8315399628279465;13100;0101;131000101;H
44126;2018-05;13;13100;2018;90;2.0;;;180AE;;;1;205.0;0.0;0.0;0.0;0.0;1.0;0.0;0.0;1.0;0.0;1.0;3.0;;0.0;0.0;1.0;0.0;0.0;0.0;0.0;0.0;0.0;0.0;;0.0;125.0;34.0;0.0;0.0;14.0;2018-05-31;;;;;43.788160008279675;4.83290998490196;13100;0101;131000101;H
44127;2018-05;13;13100;2018;90;2.0;LES DEUX COLLINES;47935640400026;684AB;;;1;141.0;0.0;1.0;0.0;1.0;0.0;0.0;0.0;0.0;2.0;2.0;2.0;;0.0;1.0;0.0;0.0;0.0;0.0;0.0;0.0;0.0;0.0;;0.0;145.0;0.0;0.0;0.0;7.0;2018-05-31;;;;;43.791683;4.8303341;13100;0101;131000101;H
44128;2018-05;13;13100;2018;90;2.0;AMY IMMOBILIERE;49060541700016;243AM;;;1;763.0;0.0;1.0;0.0;0.0;0.0;0.0;0.0;1.0;0.0;1.0;;;1.0;0.0;0.0;0.0;0.0;0.0;0.0;0.0;0.0;0.0;;0.0;51.0;0.0;0.0;0.0;7.0;2018-05-31;;;;;43.79136998382927;4.8315399628279465;13100;0101;131000101;H
46938;2018-06;13;13100;2018;10;2.0;;;180AE;;;2;205.0;0.0;0.0;0.0;0.0;1.0;0.0;0.0;1.0;0.0;1.0;3.0;2.0;0.0;0.0;1.0;0.0;0.0;0.0;0.0;0.0;0.0;0.0;;0.0;125.0;34.0;0.0;0.0;14.0;2018-06-30;2018-06-21;;;;43.7889526;4.8335107;13100;0101;131000101;H
49919;2018-07;13;13100;2018;90;2.0;LES DEUX COLLINES;47935640400026;684AB;;;2;141.0;0.0;1.0;0.0;1.0;0.0;0.0;0.0;0.0;2.0;2.0;2.0;1.0;0.0;1.0;0.0;0.0;0.0;0.0;0.0;0.0;0.0;0.0;;0.0;145.0;0.0;0.0;0.0;7.0;2018-07-31;2018-07-20;;;;43.79170025951206;4.830338107913894;13100;0101;131000101;H
49920;2018-07;13;13100;2018;30;2.0;AMY IMMOBILIERE;49060541700016;243AM;;;2;763.0;0.0;0.0;1.0;0.0;0.0;0.0;0.0;1.0;0.0;1.0;;2.0;1.0;0.0;0.0;0.0;0.0;0.0;0.0;0.0;0.0;0.0;;0.0;51.0;0.0;0.0;0.0;7.0;2018-07-31;2018-07-13;;;;43.79136998382927;4.8315399628279465;13100;0101;131000101;H
49921;2018-07;13;13100;2018;90;2.0;ATRIUM;80471361800028;37AO;;;1;848.0;0.0;0.0;0.0;0.0;0.0;0.0;1.0;0.0;7.0;7.0;;;0.0;1.0;0.0;0.0;0.0;0.0;0.0;0.0;0.0;0.0;;117.0;586.0;0.0;117.0;0.0;12.0;2018-07-31;;;;;43.788540705141884;4.83674391920547;13100;0101;131000101;H
63409;2018-12;13;13100;2018;10;2.0;INCENT TRAVEL CONSEIL;35355531100029;111AI;;;2;1247.0;0.0;0.0;0.0;1.0;0.0;0.0;0.0;1.0;0.0;1.0;;2.0;0.0;1.0;0.0;0.0;0.0;0.0;0.0;0.0;0.0;0.0;;178.0;96.0;89.0;0.0;0.0;14.0;2018-12-31;2019-01-03;;;;43.7875847;4.8286251;13100;0101;131000101;H
63410;2018-12;13;13100;2018;90;2.0;SCCV ANGLE 7;81780714200010;482AB;623AB;635AB;1;2143.0;0.0;7.0;16.0;3.0;0.0;0.0;4.0;0.0;26.0;26.0;3.0;;0.0;1.0;0.0;0.0;0.0;0.0;0.0;0.0;0.0;0.0;;622.0;1673.0;0.0;622.0;0.0;12.0;2018-12-31;;;;;43.790470018885316;4.832289975524077;13100;0101;131000101;H
73915;2019-04;13;13100;2019;90;2.0;ATRIUM;80471361800028;37AO;;;1;848.0;0.0;2.0;6.0;0.0;0.0;0.0;0.0;0.0;8.0;8.0;2.0;;0.0;1.0;0.0;0.0;0.0;0.0;0.0;0.0;0.0;0.0;;117.0;574.0;0.0;117.0;0.0;12.0;2019-04-30;;;;;43.7889264;4.8336502;13100;0101;131000101;H
79156;2019-06;13;13100;2018;32;2.0;SCCV ANGLE 7;81780714200028;482AB;623AB;635AB;2;2143.0;0.0;4.0;14.0;2.0;0.0;0.0;4.0;0.0;20.0;20.0;3.0;1.0;0.0;1.0;0.0;0.0;0.0;0.0;0.0;0.0;0.0;0.0;;622.0;1265.0;0.0;622.0;0.0;12.0;2019-06-30;2019-06-26;;;;43.790470018885316;4.832289975524077;13100;0101;131000101;H
81916;2019-07;13;13100;2019;90;2.0;PROMETHEE;844312116;287AN;288AN;537AN;1;1860.0;0.0;0.0;0.0;0.0;0.0;1.0;0.0;1.0;0.0;1.0;2.0;;1.0;0.0;0.0;0.0;0.0;0.0;0.0;0.0;0.0;0.0;;345.0;247.0;0.0;0.0;0.0;7.0;2019-07-31;;;;;43.7885782;4.8317498;13100;0101;131000101;H
97340;2020-01;13;13100;2020;90;2.0;SIMO CONCEPT;51258265100026;317AI;;;1;2476.0;0.0;0.0;0.0;0.0;0.0;1.0;0.0;1.0;0.0;1.0;2.0;;1.0;0.0;0.0;0.0;0.0;0.0;0.0;0.0;0.0;0.0;;0.0;406.0;0.0;0.0;0.0;5.0;2020-01-31;;;;;43.78715181074679;4.827963638468705;13100;0101;131000101;H
102651;2021-03;13;13100;2021;90;2.0;PRIMOCOM;53793460600014;467AO;84AO;;1;16806.0;0.0;21.0;16.0;16.0;8.0;0.0;0.0;10.0;51.0;61.0;;;0.0;1.0;0.0;0.0;0.0;0.0;0.0;0.0;0.0;0.0;;0.0;4877.0;0.0;0.0;0.0;7.0;2021-03-31;;;;;43.788440047664764;4.831565108537461;13100;0101;131000101;H
102652;2021-03;13;13100;2021;90;2.0;;;316AI;;;1;1427.0;0.0;0.0;0.0;0.0;0.0;1.0;0.0;1.0;0.0;1.0;2.0;;1.0;0.0;0.0;0.0;0.0;0.0;0.0;0.0;0.0;0.0;;0.0;211.0;0.0;0.0;0.0;5.0;2021-03-31;;;;;43.78715181074679;4.827963638468705;13100;0101;131000101;H
312;2018-04;13;13103;2018;10;2.0;;;639CM;;;2;0.0;0.0;0.0;0.0;0.0;0.0;0.0;0.0;1.0;0.0;1.0;;1.0;0.0;0.0;0.0;0.0;0.0;0.0;0.0;0.0;0.0;0.0;;0.0;190.0;0.0;0.0;0.0;5.0;2018-04-30;2018-04-26;;;;43.62902692567363;5.123095426508314;13103;0114;131030114;H
7533;2017-02;13;13103;2016;90;2.0;;;551CI;;;2;3423.0;0.0;0.0;0.0;3.0;0.0;0.0;0.0;3.0;0.0;3.0;3.0;1.0;0.0;0.0;1.0;0.0;0.0;0.0;0.0;0.0;0.0;0.0;;376.0;240.0;0.0;0.0;0.0;7.0;2017-02-28;2017-02-08;;;;43.64226464969726;5.121251684193379;13103;0114;131030114;H
41245;2018-03;13;13103;2018;90;2.0;;;8CL;7CL;;1;12475.0;0.0;0.0;10.0;14.0;0.0;0.0;0.0;24.0;0.0;24.0;;;0.0;0.0;0.0;0.0;0.0;0.0;0.0;0.0;0.0;0.0;;0.0;1911.0;0.0;0.0;0.0;7.0;2018-03-30;;;;;43.63128813437577;5.118092199566929;13103;0114;131030114;H
44130;2018-05;13;13103;2018;32;2.0;;;707CI;;;2;0.0;0.0;0.0;0.0;0.0;1.0;0.0;0.0;1.0;0.0;1.0;;1.0;1.0;0.0;0.0;0.0;0.0;0.0;0.0;0.0;0.0;0.0;;0.0;170.0;0.0;0.0;0.0;5.0;2018-05-31;2018-05-29;;;;43.6427515;5.1157233;13103;0114;131030114;H
46939;2018-06;13;13103;2018;32;2.0;SCI LE HAMEAU DE LA CROIX BLANCHE;83756599300016;8CL;7CL;;2;12475.0;0.0;0.0;10.0;14.0;0.0;0.0;0.0;24.0;0.0;24.0;;1.0;0.0;1.0;0.0;0.0;0.0;0.0;0.0;0.0;0.0;0.0;;0.0;1911.0;0.0;0.0;0.0;7.0;2018-06-30;2018-06-28;;;;43.63128813437577;5.118092199566929;13103;0114;131030114;H
58091;2018-10;13;13103;2018;90;2.0;;;639CM;;;1;0.0;0.0;0.0;0.0;2.0;0.0;0.0;0.0;2.0;0.0;2.0;2.0;;1.0;0.0;0.0;0.0;0.0;0.0;0.0;0.0;0.0;0.0;;0.0;190.0;0.0;0.0;0.0;7.0;2018-10-31;;;;;43.62902692567363;5.123095426508314;13103;0114;131030114;H
68572;2019-02;13;13103;2018;90;2.0;MARS CONSTRUCTION;52215289100027;639CM;;;2;0.0;0.0;0.0;0.0;2.0;0.0;0.0;0.0;2.0;0.0;2.0;2.0;1.0;1.0;0.0;0.0;0.0;0.0;0.0;0.0;0.0;0.0;0.0;;0.0;190.0;0.0;0.0;0.0;7.0;2019-02-28;2019-01-14;;;;43.62902692567363;5.123095426508314;13103;0114;131030114;H
76472;2019-05;13;13103;2019;90;2.0;SCI MARINE;34785881300038;707CI;;;1;2281.0;0.0;0.0;0.0;0.0;0.0;1.0;0.0;1.0;0.0;1.0;;;1.0;0.0;0.0;0.0;0.0;0.0;0.0;0.0;0.0;0.0;;0.0;236.0;0.0;0.0;0.0;5.0;2019-05-31;;;;;43.64278000483418;5.11582000419304;13103;0114;131030114;H
81917;2019-07;13;13103;2019;32;2.0;SCI MARINE;34785881300038;707CI;;;2;2281.0;0.0;0.0;0.0;0.0;0.0;1.0;0.0;1.0;0.0;1.0;;1.0;1.0;0.0;0.0;0.0;0.0;0.0;0.0;0.0;0.0;0.0;;0.0;236.0;0.0;0.0;0.0;5.0;2019-07-31;2019-07-02;;;;43.64278000483418;5.11582000419304;13103;0114;131030114;H
313;2018-04;13;13103;2018;90;2.0;;;610CN;;;1;59366.0;0.0;29.0;31.0;63.0;27.0;0.0;0.0;81.0;69.0;150.0;;;0.0;1.0;0.0;0.0;0.0;0.0;0.0;0.0;0.0;0.0;;9343.0;12809.0;0.0;0.0;0.0;7.0;2018-04-30;;;;;43.62313066891428;5.121852733080747;13103;0113;131030113;H
41246;2018-03;13;13103;2018;90;2.0;;;362CW;;;1;4280.0;0.0;9.0;9.0;4.0;1.0;0.0;0.0;20.0;3.0;23.0;;;0.0;1.0;1.0;0.0;0.0;0.0;0.0;0.0;0.0;0.0;;0.0;1568.0;0.0;0.0;0.0;7.0;2018-03-30;;;;;43.626201374345754;5.084706694301226;13103;0113;131030113;H
52977;2018-08;13;13103;2018;90;2.0;;;591CN;590CN;;1;4215.0;0.0;0.0;0.0;0.0;0.0;0.0;0.0;1.0;0.0;1.0;;;0.0;1.0;0.0;0.0;0.0;0.0;0.0;0.0;0.0;0.0;;0.0;57.0;0.0;0.0;0.0;14.0;2018-08-31;;;;;43.62525755;5.116404386652231;13103;0113;131030113;H
55516;2018-09;13;13103;2018;90;2.0;;;610CN;;;2;59366.0;0.0;29.0;31.0;63.0;27.0;0.0;0.0;81.0;69.0;150.0;;1.0;0.0;1.0;0.0;0.0;0.0;0.0;0.0;0.0;0.0;0.0;;9343.0;12809.0;0.0;0.0;0.0;7.0;2018-09-30;2018-09-07;;;;43.62313066891428;5.121852733080747;13103;0113;131030113;H
60925;2018-11;13;13103;2018;10;2.0;;;591CN;590CN;;2;4215.0;0.0;0.0;1.0;0.0;0.0;0.0;0.0;1.0;0.0;1.0;;1.0;1.0;0.0;0.0;0.0;0.0;0.0;0.0;0.0;0.0;0.0;;0.0;57.0;0.0;0.0;0.0;14.0;2018-11-30;2018-11-19;;;;43.62525755;5.116404386652231;13103;0113;131030113;H
60927;2018-11;13;13103;2018;90;2.0;;;277AX;;;1;3878.0;0.0;1.0;0.0;0.0;0.0;0.0;0.0;1.0;0.0;1.0;2.0;;0.0;1.0;0.0;0.0;0.0;0.0;0.0;0.0;0.0;0.0;;0.0;49.0;0.0;0.0;0.0;14.0;2018-11-30;;;;;43.62713285018346;5.088311849277864;13103;0113;131030113;H
71111;2019-03;13;13103;2018;10;2.0;ABH CONSTRUCTION;81774399000027;277AX;;;2;3878.0;0.0;0.0;1.0;0.0;0.0;0.0;0.0;1.0;0.0;1.0;2.0;1.0;1.0;0.0;0.0;0.0;0.0;0.0;0.0;0.0;0.0;0.0;;0.0;49.0;0.0;0.0;0.0;14.0;2019-03-31;2019-03-05;;;;43.62713285018346;5.088311849277864;13103;0113;131030113;H
314;2018-04;13;13106;2018;90;2.0;;;0012BA;0011BA;;1;1393.0;0.0;0.0;0.0;0.0;0.0;0.0;0.0;1.0;0.0;1.0;;;0.0;0.0;0.0;0.0;0.0;0.0;0.0;0.0;0.0;0.0;;40.0;129.0;0.0;0.0;0.0;7.0;2018-04-30;;;;;47.68846000000008;6.042310000000043;70421;0000;704210000;Z
315;2018-04;13;13107;2017;10;2.0;;;47pAK;;;2;311.0;0.0;0.0;0.0;1.0;0.0;0.0;0.0;1.0;0.0;1.0;;1.0;0.0;0.0;0.0;0.0;0.0;0.0;0.0;0.0;0.0;0.0;;0.0;94.0;0.0;0.0;0.0;5.0;2018-04-30;2018-04-25;;;;43.4347732;5.4357198;13107;0101;131070101;H
14110;2017-05;13;13107;2017;90;2.0;;;158AH;;;1;2398.0;0.0;0.0;0.0;2.0;0.0;0.0;0.0;2.0;0.0;2.0;2.0;;1.0;0.0;0.0;0.0;0.0;0.0;0.0;0.0;0.0;0.0;;77.0;183.0;0.0;77.0;0.0;12.0;2017-05-31;;;;;43.436268954616125;5.421957950570031;13107;0101;131070101;H
21613;2017-08;13;13107;2017;10;2.0;;;462AD;;;1;1007.0;0.0;0.0;0.0;1.0;0.0;0.0;0.0;1.0;0.0;1.0;2.0;;0.0;0.0;0.0;0.0;0.0;0.0;0.0;0.0;0.0;0.0;;0.0;99.0;0.0;0.0;0.0;5.0;2017-08-31;;;;;43.432709981423216;5.427209970274561;13107;0101;131070101;H
24262;2017-09;13;13107;2017;10;2.0;;;245AK;;;1;458.0;0.0;0.0;1.0;0.0;0.0;0.0;0.0;1.0;0.0;1.0;1.0;;0.0;0.0;0.0;0.0;0.0;0.0;0.0;0.0;0.0;0.0;;0.0;90.0;0.0;0.0;0.0;5.0;2017-09-30;;;;;43.43409999433629;5.429190027261711;13107;0101;131070101;H
26809;2017-10;13;13107;2017;90;2.0;;;158AH;;;2;2398.0;0.0;0.0;0.0;2.0;0.0;0.0;0.0;2.0;0.0;2.0;2.0;1.0;0.0;0.0;0.0;0.0;0.0;0.0;0.0;0.0;0.0;0.0;;77.0;183.0;0.0;77.0;0.0;12.0;2017-10-31;2017-10-10;;;;43.436268954616125;5.421957950570031;13107;0101;131070101;H
26811;2017-10;13;13107;2017;10;2.0;;;245AK;;;2;458.0;0.0;0.0;1.0;0.0;0.0;0.0;0.0;1.0;0.0;1.0;1.0;1.0;0.0;0.0;0.0;0.0;0.0;0.0;0.0;0.0;0.0;0.0;;0.0;90.0;0.0;0.0;0.0;5.0;2017-10-31;2017-10-23;;;;43.43409999433629;5.429190027261711;13107;0101;131070101;H
32456;2017-12;13;13107;2017;90;2.0;;;47pAK;;;1;311.0;0.0;0.0;0.0;1.0;0.0;0.0;0.0;1.0;0.0;1.0;;;0.0;0.0;0.0;0.0;0.0;0.0;0.0;0.0;0.0;0.0;;0.0;94.0;0.0;;0.0;5.0;;;;0.0;2017/12;43.43399999823143;5.435390037221538;13107;0101;131070101;H
35846;2018-01;13;13107;2016;30;2.0;SA BOUYGUES IMMOBILIER;56209154601090;69 AAD;;;3;6608.0;2.0;7.0;9.0;16.0;6.0;0.0;1.0;20.0;20.0;40.0;3.0;1.0;0.0;1.0;0.0;0.0;0.0;0.0;0.0;0.0;0.0;0.0;;298.0;3260.0;0.0;298.0;0.0;12.0;2018-01-31;2016-10-03;2017-07-20;;;43.434089183996576;5.428770630824927;13107;0101;131070101;H
35847;2018-01;13;13107;2017;90;2.0;;;462AD;;;2;1007.0;0.0;0.0;0.0;0.0;0.0;0.0;0.0;2.0;0.0;2.0;;1.0;0.0;0.0;0.0;0.0;0.0;0.0;0.0;0.0;0.0;0.0;;0.0;198.0;0.0;0.0;0.0;7.0;2018-01-31;2018-01-16;;;;43.4340478;5.4284421;13107;0101;131070101;H
44132;2018-05;13;13107;2015;90;2.0;ESH FAMILLE & PROVENCE;78267888200021;15AI;16AI;17AI;3;11957.0;0.0;4.0;24.0;12.0;0.0;0.0;0.0;12.0;28.0;40.0;2.0;1.0;0.0;1.0;0.0;0.0;0.0;0.0;0.0;0.0;0.0;0.0;;203.0;2906.0;0.0;0.0;0.0;7.0;2018-05-31;2015-12-08;2017-11-27;;;43.434089183996576;5.428770630824927;13107;0101;131070101;H
46941;2018-06;13;13107;2017;10;2.0;;;245AK;;;3;458.0;0.0;0.0;1.0;0.0;0.0;0.0;0.0;1.0;0.0;1.0;1.0;1.0;0.0;0.0;0.0;0.0;0.0;0.0;0.0;0.0;0.0;0.0;;0.0;90.0;0.0;0.0;0.0;5.0;2018-06-30;2017-10-23;2018-03-22;;;43.43409999433629;5.429190027261711;13107;0101;131070101;H
66142;2019-01;13;13107;2018;32;2.0;SCI GADIE;34405072900013;169AD;170AD;;2;610.0;0.0;0.0;0.0;0.0;0.0;0.0;0.0;0.0;5.0;5.0;;2.0;0.0;0.0;1.0;0.0;0.0;0.0;0.0;0.0;0.0;0.0;;0.0;218.0;0.0;0.0;0.0;14.0;2019-01-31;2018-07-11;;;;43.4302185;5.4353683;13107;0101;131070101;H
79161;2019-06;13;13107;2018;32;2.0;DOMANIAL SCI;84397853700010;230pAK;;;2;0.0;0.0;0.0;0.0;1.0;0.0;0.0;0.0;1.0;0.0;1.0;;1.0;1.0;0.0;0.0;0.0;0.0;0.0;0.0;0.0;0.0;0.0;;0.0;75.0;0.0;0.0;0.0;5.0;2019-06-30;2018-12-31;;;;43.43327001828388;5.432310023080703;13107;0101;131070101;H
100036;2020-02;13;13107;2020;90;2.0;;;32AH;33AH;34AH;1;15435.0;1.0;11.0;20.0;0.0;25.0;13.0;0.0;38.0;32.0;70.0;;;0.0;1.0;0.0;0.0;0.0;0.0;0.0;0.0;0.0;0.0;;1542.0;5983.0;0.0;1542.0;0.0;12.0;2020-02-29;;;;;43.435025499999995;5.422560247359738;13107;0101;131070101;H
316;2018-04;13;13117;2017;32;2.0;SCCV La Plaine;;0390CN;;;2;13766.0;0.0;0.0;7.0;5.0;0.0;0.0;0.0;0.0;12.0;12.0;;1.0;0.0;1.0;0.0;0.0;0.0;0.0;0.0;0.0;0.0;0.0;;0.0;778.0;0.0;0.0;0.0;7.0;2018-04-30;2018-04-11;;;;43.453426083984674;5.2406253312486575;13117;0109;131170109;H
317;2018-04;13;13201;2017;10;2.0;HUFRAMAPI;38403722200013;0166C;;;2;160.0;0.0;0.0;0.0;1.0;0.0;0.0;0.0;1.0;0.0;1.0;1.0;2.0;0.0;0.0;1.0;0.0;0.0;0.0;0.0;0.0;0.0;0.0;;0.0;0.0;70.0;0.0;0.0;10.0;2018-04-30;2018-04-20;;;;43.2988700146316;5.38259997283231;13201;0201;132010201;H
29665;2017-11;13;13201;2017;10;2.0;HUFRAMAPI;38403722200013;0166C;;;1;160.0;0.0;0.0;0.0;1.0;0.0;0.0;0.0;1.0;0.0;1.0;1.0;;0.0;0.0;1.0;0.0;0.0;0.0;0.0;0.0;0.0;0.0;;0.0;0.0;70.0;0.0;0.0;10.0;2017-11-30;;;;;43.2988700146316;5.38259997283231;13201;0201;132010201;H
102660;2021-03;13;13201;2021;90;2.0;TBP CONSEIL;81286850300028;0099A;;;1;188.0;2.0;0.0;0.0;0.0;0.0;0.0;0.0;0.0;2.0;2.0;4.0;;0.0;0.0;1.0;0.0;0.0;0.0;0.0;0.0;0.0;0.0;;196.0;46.0;0.0;0.0;0.0;7.0;2021-03-31;;;;;43.30028999284855;5.382740034434363;13201;0201;132010201;H
102661;2021-03;13;13201;2021;90;2.0;SCI HALIOTIS;88134844500019;0056C;;;1;154.0;1.0;1.0;1.0;0.0;0.0;0.0;0.0;0.0;3.0;3.0;1.0;;0.0;0.0;1.0;0.0;0.0;0.0;0.0;0.0;0.0;0.0;;294.0;0.0;149.0;0.0;0.0;14.0;2021-03-31;;;;;43.3001262;5.3822708;13201;0201;132010201;H
318;2018-04;13;13205;2018;90;2.0;SCI MARNIGRHE;83248945400013;0054D;;;1;309.0;0.0;1.0;0.0;0.0;0.0;0.0;0.0;1.0;0.0;1.0;4.0;;1.0;0.0;0.0;0.0;0.0;0.0;0.0;0.0;0.0;0.0;;264.0;33.0;0.0;3.0;0.0;12.0;2018-04-30;;;;;43.2877271;5.3974811;13205;0102;132050102;H
46952;2018-06;13;13205;2018;90;2.0;ELARON;828545459;0145C;;;1;461.0;0.0;1.0;0.0;0.0;0.0;0.0;0.0;1.0;0.0;1.0;4.0;;0.0;1.0;0.0;0.0;0.0;0.0;0.0;0.0;0.0;0.0;;212.0;40.0;0.0;0.0;0.0;7.0;2018-06-30;;;;;43.28851999868104;5.398619969095392;13205;0102;132050102;H
71121;2019-03;13;13205;2019;90;2.0;COGEDIM PROVENCE;44273941300056;0058D;0059D;;1;846.0;100.0;9.0;1.0;0.0;0.0;0.0;0.0;0.0;110.0;110.0;6.0;;0.0;0.0;1.0;0.0;1.0;0.0;0.0;0.0;0.0;0.0;;980.0;2830.0;0.0;980.0;0.0;12.0;2019-03-31;;;;;43.28768998071911;5.39890998294527;13205;0102;132050102;H
81931;2019-07;13;13205;2019;30;2.0;COGEDIM PROVENCE;44273941300056;0058D;0059D;;2;846.0;100.0;9.0;1.0;0.0;0.0;0.0;0.0;0.0;110.0;110.0;6.0;1.0;0.0;1.0;0.0;0.0;1.0;0.0;0.0;0.0;0.0;0.0;;980.0;2830.0;0.0;980.0;0.0;12.0;2019-07-31;2019-07-16;;;;43.2877271;5.3974811;13205;0102;132050102;H
319;2018-04;13;13208;2017;32;2.0;SNC ADIM PACA;52887559400020;0050A;;;2;3386.0;0.0;43.0;6.0;6.0;0.0;0.0;0.0;0.0;55.0;55.0;7.0;2.0;0.0;1.0;0.0;1.0;0.0;0.0;0.0;0.0;0.0;0.0;;3210.0;3656.0;313.0;1326.0;0.0;14.0;2018-04-30;2018-04-24;;;;43.28144001461632;5.386680031840996;13208;0701;132080701;H
9608;2017-03;13;13208;2016;90;2.0;EURL CUBE DEVELOPPEMENT;75246667200017;0013B;0175B;;2;942.0;2.0;12.0;10.0;3.0;1.0;0.0;0.0;0.0;28.0;28.0;9.0;1.0;0.0;1.0;0.0;0.0;0.0;0.0;0.0;0.0;0.0;0.0;;132.0;1678.0;0.0;132.0;0.0;14.0;2017-03-31;2017-03-01;;;;43.279670008122764;5.389559969953069;13208;0701;132080701;H
29675;2017-11;13;13208;2017;32;2.0;SNC ADIM PACA;52887559400020;0050A;;;1;3386.0;0.0;43.0;6.0;0.0;0.0;0.0;0.0;0.0;55.0;55.0;7.0;;0.0;1.0;0.0;0.0;0.0;0.0;0.0;0.0;0.0;0.0;;3210.0;3656.0;313.0;1326.0;0.0;14.0;2017-11-30;;;;;43.28144001461632;5.386680031840996;13208;0701;132080701;H
320;2018-04;13;13208;2017;32;2.0;SAS SCCV 26 TRAVERSE DE POMEGUES;53823385900015;0265D;;;2;812.0;0.0;0.0;0.0;0.0;2.0;0.0;0.0;2.0;0.0;2.0;2.0;1.0;0.0;1.0;0.0;0.0;0.0;0.0;0.0;0.0;0.0;0.0;;173.0;448.0;0.0;0.0;0.0;7.0;2018-04-30;2018-04-16;;;;43.25049000477907;5.386710039054378;13208;1004;132081004;A
32473;2017-12;13;13208;2017;90;2.0;BOUYGUES IMMOBILIER;56209154600605;0267D;0268D;0269D;1;4171.0;4.0;27.0;34.0;11.0;0.0;0.0;0.0;0.0;76.0;76.0;10.0;;0.0;1.0;0.0;0.0;0.0;0.0;0.0;0.0;0.0;0.0;;0.0;4801.0;0.0;;0.0;7.0;;;;0.0;2017/12;43.2472499801066;5.392830001838888;13208;1004;132081004;A
321;2018-04;13;13208;2017;30;2.0;SAS BOUYGUES IMMOBILIER;56209154600605;0267D;0268D;0269D;2;4171.0;4.0;27.0;34.0;11.0;0.0;0.0;0.0;0.0;76.0;76.0;10.0;1.0;0.0;1.0;0.0;0.0;0.0;0.0;0.0;0.0;0.0;0.0;;0.0;4801.0;0.0;0.0;0.0;7.0;2018-04-30;2018-04-13;;;;43.2529032;5.3856787;13208;0102;132080102;H
32469;2017-12;13;13208;2017;90;2.0;SCI GMT 13;83302400300018;0005E;;;1;530.0;0.0;0.0;0.0;0.0;1.0;0.0;0.0;1.0;0.0;1.0;1.0;;1.0;0.0;0.0;0.0;0.0;0.0;0.0;0.0;0.0;0.0;;0.0;149.0;0.0;;0.0;5.0;;;;0.0;2017/12;43.2539253;5.3820428;13208;0102;132080102;H
32472;2017-12;13;13208;2017;90;2.0;SCCV 26 TRAVERSE DE POMEGUES;53823385900015;0265D;;;1;812.0;0.0;0.0;0.0;0.0;2.0;0.0;0.0;2.0;0.0;2.0;2.0;;0.0;1.0;0.0;0.0;0.0;0.0;0.0;0.0;0.0;0.0;;173.0;448.0;0.0;;0.0;7.0;;;;0.0;2017/12;43.2524162;5.3829278;13208;0102;132080102;H
94105;2019-12;13;13208;2019;90;2.0;JAV INVESTISSEMENT;44945536900024;0154C;;;1;1975.0;0.0;0.0;0.0;0.0;0.0;0.0;0.0;0.0;32.0;32.0;1.0;;0.0;1.0;0.0;0.0;0.0;0.0;0.0;0.0;0.0;0.0;;264.0;2034.0;0.0;264.0;0.0;12.0;2019-12-31;;;;;43.2539253;5.3820428;13208;0102;132080102;H
322;2018-04;13;13208;2018;90;2.0;;;0020R;;;1;5566.0;14.0;41.0;26.0;0.0;0.0;0.0;0.0;0.0;81.0;81.0;4.0;;0.0;1.0;0.0;1.0;0.0;0.0;0.0;0.0;0.0;0.0;;0.0;2735.0;1620.0;0.0;0.0;14.0;2018-04-30;;;;;43.2631900130134;5.388609965047152;13208;0905;132080905;A
21621;2017-08;13;13208;2017;90;2.0;SARL MONTJANY;83814871600015;0255L;0254L;;2;2027.0;0.0;20.0;18.0;6.0;0.0;0.0;0.0;0.0;44.0;44.0;6.0;1.0;0.0;1.0;0.0;0.0;0.0;0.0;0.0;0.0;0.0;0.0;;0.0;2829.0;0.0;0.0;0.0;7.0;2017-08-31;2017-08-08;;;;43.2587633;5.3888662;13208;0905;132080905;A
32475;2017-12;13;13208;2017;90;2.0;SCCV RESIDENCE RESIDENCE ST ANNE;;0060M;;;1;1092.0;3.0;15.0;15.0;6.0;0.0;0.0;0.0;0.0;39.0;39.0;3.0;;0.0;1.0;0.0;0.0;0.0;0.0;0.0;0.0;0.0;0.0;;0.0;2193.0;0.0;;0.0;14.0;;;;0.0;2017/12;43.2586122;5.392357;13208;0905;132080905;A
41261;2018-03;13;13208;2018;90;2.0;;;0015R;;;1;17530.0;1.0;20.0;61.0;17.0;6.0;0.0;0.0;6.0;99.0;105.0;4.0;;0.0;1.0;0.0;0.0;0.0;0.0;0.0;0.0;0.0;0.0;;0.0;9180.0;0.0;0.0;0.0;14.0;2018-03-30;;;;;43.2631900130134;5.388609965047152;13208;0905;132080905;A
58108;2018-10;13;13208;2018;32;2.0;SCCV ADN CLOT BEY;;0015R;;;2;17530.0;1.0;20.0;61.0;17.0;6.0;0.0;0.0;6.0;99.0;105.0;4.0;1.0;0.0;1.0;0.0;0.0;0.0;0.0;0.0;0.0;0.0;0.0;;0.0;9180.0;0.0;0.0;0.0;14.0;2018-10-31;2018-10-04;;;;43.263199;5.3886139;13208;0905;132080905;A
63428;2018-12;13;13208;2018;32;2.0;ADN CLOT BEY;84115007100014;0020R;;;2;5566.0;14.0;41.0;26.0;0.0;0.0;0.0;0.0;0.0;81.0;81.0;4.0;1.0;0.0;1.0;0.0;0.0;0.0;0.0;0.0;0.0;0.0;0.0;;0.0;4208.0;;0.0;0.0;7.0;2018-12-31;2018-12-18;;;;43.2631900130134;5.388609965047152;13208;0905;132080905;A
323;2018-04;13;13208;2018;90;2.0;STEG;81149044000013;0008K;;;1;240.0;0.0;0.0;0.0;1.0;0.0;0.0;0.0;1.0;0.0;1.0;1.0;;1.0;0.0;0.0;0.0;0.0;0.0;0.0;0.0;0.0;0.0;;60.0;71.0;0.0;0.0;0.0;7.0;2018-04-30;;;;;43.245890016316395;5.378039966047766;13208;1002;132081002;H
11942;2017-04;13;13208;2017;10;2.0;SAS BD DES NEIGES;81807838800019;0183B;;;1;553.0;0.0;0.0;0.0;0.0;1.0;0.0;0.0;1.0;0.0;1.0;1.0;;1.0;0.0;0.0;0.0;0.0;0.0;0.0;0.0;0.0;0.0;;0.0;150.0;0.0;0.0;0.0;5.0;2017-04-30;;;;;43.24840999359657;5.380320011349539;13208;1002;132081002;H
32428;2017-12;13;13055;2017;90;2.0;ADOMA;78805803000016;191A;;;1;8233.0;230.0;0.0;0.0;0.0;0.0;0.0;0.0;0.0;230.0;230.0;5.0;1.0;0.0;1.0;0.0;0.0;0.0;0.0;0.0;0.0;0.0;0.0;;5600.0;5933.0;0.0;;0.0;14.0;;;;5600.0;2017/12;43.2472499801066;5.376410021156261;13208;1002;132081002;H
32471;2017-12;13;13208;2017;90;2.0;ADOMA;78805803000016;0191A;;;1;8233.0;0.0;0.0;0.0;0.0;0.0;0.0;0.0;0.0;230.0;230.0;5.0;;0.0;1.0;0.0;0.0;0.0;0.0;0.0;0.0;0.0;0.0;;5600.0;5933.0;0.0;;0.0;14.0;;;;5600.0;2017/12;43.2472499801066;5.376410021156261;13208;1002;132081002;H
32474;2017-12;13;13208;2017;90;2.0;BD DES NEIGES;81807838800019;0212B;;;1;509.0;0.0;0.0;0.0;1.0;0.0;0.0;0.0;1.0;0.0;1.0;1.0;;1.0;0.0;0.0;0.0;0.0;0.0;0.0;0.0;0.0;0.0;;15.0;192.0;0.0;;0.0;12.0;;;;15.0;2017/12;43.24840999359657;5.380320011349539;13208;1002;132081002;H
38532;2018-02;13;13208;2017;21;2.0;SAEM ADOMA;78805803000016;0191A;;;2;8233.0;230.0;0.0;0.0;0.0;0.0;0.0;0.0;0.0;230.0;230.0;5.0;1.0;0.0;0.0;1.0;0.0;0.0;0.0;0.0;1.0;0.0;0.0;;5600.0;5933.0;0.0;5600.0;0.0;14.0;;2018-02-19;;;2018-02-28;43.2471521;5.3765346;13208;1002;132081002;H
46956;2018-06;13;13208;2018;90;2.0;BD DES NEIGES;81807838800019;0212B;;;1;509.0;0.0;0.0;0.0;0.0;1.0;0.0;0.0;1.0;0.0;1.0;1.0;;1.0;0.0;0.0;0.0;0.0;0.0;0.0;0.0;0.0;0.0;;15.0;167.0;0.0;15.0;0.0;12.0;2018-06-30;;;;;43.2484296;5.380331;13208;1002;132081002;H
46957;2018-06;13;13208;2018;90;2.0;SNC LNC PYRAMIDE PROMOTION;83130434000;0138A;;;1;4626.0;0.0;39.0;53.0;9.0;0.0;0.0;0.0;0.0;101.0;101.0;7.0;;0.0;1.0;0.0;0.0;0.0;0.0;0.0;0.0;0.0;0.0;;0.0;6194.0;0.0;0.0;0.0;7.0;2018-06-30;;;;;43.24653001653334;5.377899988264744;13208;1002;132081002;H
49940;2018-07;13;13208;2018;10;2.0;BD DES NEIGES;81807838800019;0212B;;;2;509.0;0.0;0.0;0.0;0.0;1.0;0.0;0.0;1.0;0.0;1.0;1.0;1.0;1.0;0.0;0.0;0.0;0.0;0.0;0.0;0.0;0.0;0.0;;15.0;167.0;0.0;15.0;0.0;12.0;2018-07-31;2018-07-26;;;;43.24840999359657;5.380320011349539;13208;1002;132081002;H
60943;2018-11;13;13208;2018;90;2.0;GROUPE A&A-NOVELIS;41832595700029;0019A;;;1;1065.0;0.0;8.0;16.0;6.0;0.0;0.0;0.0;0.0;30.0;30.0;6.0;;0.0;1.0;0.0;0.0;0.0;0.0;0.0;0.0;0.0;0.0;;220.0;1886.0;0.0;220.0;0.0;12.0;2018-11-30;;;;;43.2472506;5.3822286;13208;1002;132081002;H
66151;2019-01;13;13208;2019;90;2.0;GROUPE A&A -NOVELIS;41832595700029;0019A;;;1;1360.0;0.0;0.0;0.0;0.0;0.0;0.0;0.0;0.0;28.0;28.0;1.0;;0.0;1.0;0.0;0.0;0.0;0.0;0.0;0.0;0.0;0.0;;220.0;1741.0;0.0;220.0;0.0;12.0;2019-01-31;;;;;43.2472506;5.3822286;13208;1002;132081002;H
66152;2019-01;13;13208;2019;90;2.0;SNC LNC PYRAMIDE PROMOTION;83130434000;0138A;;;1;4296.0;0.0;0.0;0.0;0.0;0.0;0.0;0.0;0.0;68.0;68.0;1.0;;0.0;1.0;0.0;0.0;0.0;0.0;0.0;0.0;0.0;0.0;;0.0;4774.0;0.0;0.0;0.0;7.0;2019-01-31;;;;;43.24653001653334;5.377899988264744;13208;1002;132081002;H
71127;2019-03;13;13208;2019;90;2.0;CDC HABITAT;47080116802965;0191A;;;1;2400.0;1.0;16.0;24.0;6.0;0.0;0.0;0.0;0.0;47.0;47.0;5.0;;0.0;1.0;0.0;0.0;0.0;0.0;0.0;0.0;0.0;0.0;;0.0;2853.0;0.0;0.0;0.0;7.0;2019-03-31;;;;;43.2472499801066;5.376410021156261;13208;1002;132081002;H
81940;2019-07;13;13208;2019;90;2.0;MARSEILLE BD DES JONCS;84869969000014;0093B;;;1;12523.0;2.0;24.0;17.0;6.0;7.0;0.0;0.0;0.0;56.0;56.0;5.0;;0.0;1.0;0.0;0.0;0.0;0.0;0.0;0.0;0.0;0.0;;0.0;3497.0;0.0;0.0;0.0;7.0;2019-07-31;;;;;43.2456677;5.3806271;13208;1002;132081002;H
97357;2020-01;13;13208;2019;90;2.0;GROUPE A&A -NOVELIS;41832595700029;0019A;;;2;1360.0;0.0;14.0;9.0;4.0;1.0;0.0;0.0;0.0;28.0;28.0;1.0;1.0;0.0;1.0;0.0;0.0;0.0;0.0;0.0;0.0;0.0;0.0;;220.0;1769.0;0.0;220.0;0.0;12.0;2020-01-31;2019-10-03;;;;43.2472506;5.3822286;13208;1002;132081002;H
97358;2020-01;13;13208;2019;30;2.0;SNC LNC PYRAMIDE PROMOTION;83130434000019;0138A;;;2;4296.0;0.0;19.0;33.0;14.0;2.0;0.0;0.0;0.0;68.0;68.0;7.0;1.0;0.0;1.0;0.0;0.0;0.0;0.0;0.0;0.0;0.0;0.0;;0.0;4358.0;0.0;0.0;0.0;7.0;2020-01-31;2020-01-22;;;;43.24653001653334;5.377899988264744;13208;1002;132081002;H
324;2018-04;13;13208;2018;90;2.0;SAGEC MEDITERRANEE;34074714600041;0160B;0161B;;1;6322.0;0.0;21.0;40.0;11.0;0.0;0.0;0.0;0.0;72.0;72.0;4.0;;0.0;1.0;0.0;0.0;0.0;0.0;0.0;0.0;0.0;0.0;;0.0;4739.0;0.0;0.0;0.0;7.0;2018-04-30;;;;;43.2423806;5.3742897;13208;0601;132080601;H
41259;2018-03;13;13208;2018;90;2.0;PERSPECTIVES;81743216400017;0141B;;;1;1013.0;0.0;3.0;3.0;4.0;0.0;0.0;0.0;0.0;10.0;10.0;1.0;;0.0;1.0;0.0;0.0;0.0;0.0;0.0;0.0;0.0;0.0;;200.0;863.0;0.0;200.0;0.0;14.0;2018-03-30;;;;;43.2442638;5.3729423;13208;0601;132080601;H
49938;2018-07;13;13208;2017;32;2.0;MAIRE MER;33017781700021;0052H;0053H;0056H;2;2568.0;1.0;10.0;0.0;0.0;0.0;0.0;0.0;0.0;39.0;39.0;1.0;1.0;0.0;1.0;0.0;0.0;0.0;0.0;0.0;0.0;0.0;0.0;;0.0;2483.0;0.0;0.0;0.0;7.0;2018-07-31;2018-07-17;;;;43.24113001732209;5.371680029375341;13208;0601;132080601;H
52987;2018-08;13;13208;2018;90;2.0;PERSPECTIVES;81743216400017;0141B;;;2;1013.0;0.0;1.0;2.0;3.0;0.0;0.0;0.0;0.0;10.0;10.0;1.0;1.0;0.0;0.0;1.0;0.0;0.0;0.0;0.0;0.0;0.0;0.0;;200.0;680.0;0.0;200.0;0.0;14.0;2018-08-31;2018-08-07;;;;43.24374999070716;5.373350039764006;13208;0601;132080601;H
52988;2018-08;13;13208;2018;30;2.0;SAGEC MEDITERRANEE;34074714600041;0160B;0161B;;2;6322.0;0.0;21.0;40.0;11.0;0.0;0.0;0.0;0.0;72.0;72.0;4.0;1.0;0.0;0.0;1.0;0.0;0.0;0.0;0.0;0.0;0.0;0.0;;0.0;4739.0;0.0;0.0;0.0;14.0;2018-08-31;2018-08-22;;;;43.2424899811123;5.374180015816449;13208;0601;132080601;H
325;2018-04;13;13208;2018;90;2.0;MARSEILLE RUE CALLELONGUE;83803910500013;0182L;;;1;22200.0;0.0;134.0;158.0;63.0;5.0;0.0;0.0;0.0;360.0;360.0;8.0;;0.0;1.0;0.0;0.0;0.0;0.0;0.0;0.0;0.0;0.0;;0.0;22632.0;0.0;0.0;0.0;7.0;2018-04-30;;;;;43.257890009907015;5.38948998106153;13208;0901;132080901;H
16435;2017-06;13;13208;2017;90;2.0;SARL MONTJANY;83814871600015;0255L;0254L;;1;2027.0;0.0;20.0;18.0;6.0;0.0;0.0;0.0;0.0;44.0;44.0;6.0;;0.0;1.0;0.0;0.0;0.0;0.0;0.0;0.0;0.0;0.0;;0.0;2829.0;0.0;0.0;0.0;7.0;2017-06-30;;;;;43.256469989780555;5.389989961585968;13208;0901;132080901;H
29671;2017-11;13;13208;2017;30;2.0;GRAND PANORAMA;45340742100016;0156L;;;2;785.0;0.0;0.0;0.0;2.0;0.0;0.0;0.0;2.0;0.0;2.0;1.0;1.0;1.0;0.0;0.0;0.0;0.0;0.0;0.0;0.0;0.0;0.0;;0.0;266.0;0.0;0.0;0.0;7.0;2017-11-30;2017-11-06;;;;43.25462001993071;5.39040000428929;13208;0901;132080901;H
58109;2018-10;13;13208;2018;32;2.0;MARSEILLE RUE CALLELONGUE;83803910500013;0182L;;;2;22200.0;0.0;134.0;158.0;63.0;5.0;0.0;0.0;0.0;360.0;360.0;8.0;1.0;0.0;1.0;0.0;0.0;0.0;0.0;0.0;0.0;0.0;0.0;;0.0;22632.0;0.0;0.0;0.0;14.0;2018-10-31;2018-10-25;;;;43.257890009907015;5.38948998106153;13208;0901;132080901;H
63429;2018-12;13;13208;2018;90;2.0;SNC CALLELONGUE A MARSEILLE 8;84301880500021;0184L;0014L;;1;5615.0;6.0;61.0;43.0;12.0;0.0;0.0;0.0;0.0;122.0;122.0;1.0;;0.0;1.0;0.0;0.0;0.0;0.0;0.0;0.0;0.0;0.0;;415.0;7100.0;0.0;0.0;0.0;7.0;2018-12-31;;;;;43.25526999461243;5.391050020880556;13208;0901;132080901;H
66153;2019-01;13;13208;2019;90;2.0;SCI CRAP;403799331RCS;0256L;;;1;403.0;0.0;0.0;0.0;0.0;1.0;0.0;0.0;1.0;0.0;1.0;1.0;;1.0;0.0;0.0;0.0;0.0;0.0;0.0;0.0;0.0;0.0;;0.0;158.0;0.0;0.0;0.0;5.0;2019-01-31;;;;;43.25313998537749;5.392010000251247;13208;0901;132080901;H
326;2018-04;13;13209;2018;90;2.0;;;0084T;0063T;;1;2076.0;1.0;10.0;9.0;2.0;8.0;0.0;3.0;0.0;30.0;30.0;1.0;;0.0;1.0;0.0;0.0;0.0;0.0;0.0;0.0;0.0;0.0;;400.0;2273.0;0.0;400.0;0.0;12.0;2018-04-30;;;;;43.24939000571584;5.398049999679472;13209;0401;132090401;H
46960;2018-06;13;13209;2018;90;2.0;SNC LNC PYRAMIDE PROMOTION;83130434000019;0092U;0119U;0122U;1;3710.0;0.0;24.0;31.0;6.0;0.0;0.0;0.0;0.0;61.0;61.0;5.0;;0.0;1.0;0.0;0.0;0.0;0.0;0.0;0.0;0.0;0.0;;780.0;3630.0;0.0;780.0;0.0;12.0;2018-06-30;;;;;43.25129998999242;5.395889983231143;13209;0401;132090401;H
60946;2018-11;13;13209;2018;90;2.0;CH DU LANCIER A MARSEILLE 9;84302420900010;0175N;0179N;;1;1816.0;0.0;18.0;24.0;5.0;2.0;0.0;0.0;0.0;49.0;49.0;6.0;;0.0;1.0;0.0;0.0;0.0;0.0;0.0;0.0;0.0;0.0;;550.0;3150.0;0.0;0.0;0.0;7.0;2018-11-30;;;;;43.2491246;5.3970636;13209;0401;132090401;H
66155;2019-01;13;13209;2018;30;2.0;MARSEILLE 13009- BD ALMERAS;83130434000019;0092U;0119U;0122U;2;3710.0;0.0;24.0;31.0;6.0;0.0;0.0;3.0;0.0;61.0;61.0;5.0;1.0;0.0;1.0;0.0;0.0;0.0;0.0;0.0;0.0;0.0;0.0;;780.0;3713.0;0.0;780.0;0.0;12.0;2019-01-31;2019-01-08;;;;43.25129998999242;5.395889983231143;13209;0401;132090401;H
66156;2019-01;13;13209;2018;32;2.0;MARSEILLE CACHOTTE;83883564300019;0084T;0083T;;2;2007.0;1.0;9.0;9.0;10.0;0.0;0.0;3.0;0.0;29.0;29.0;1.0;1.0;0.0;1.0;0.0;0.0;0.0;0.0;0.0;0.0;0.0;0.0;;400.0;1926.0;0.0;400.0;0.0;12.0;2019-01-31;2019-01-24;;;;43.24939000571584;5.398049999679472;13209;0401;132090401;H
327;2018-04;13;13210;2017;32;2.0;SCCV MARSEILLE VERDILLON;83801503000011;0071B;0073B;;2;2848.0;6.0;18.0;25.0;9.0;0.0;0.0;1.0;0.0;58.0;58.0;6.0;1.0;0.0;1.0;0.0;0.0;0.0;0.0;0.0;0.0;0.0;0.0;;170.0;3519.0;0.0;170.0;0.0;14.0;2018-04-30;2018-04-17;;;;43.2772038;5.4197831;13210;0301;132100301;H
26826;2017-10;13;13210;2017;32;2.0;SCCV MARSEILLE VERDILLON;83801503000011;0071B;0073B;;1;2848.0;0.0;22.0;26.0;10.0;0.0;0.0;0.0;0.0;58.0;58.0;6.0;;0.0;1.0;0.0;0.0;0.0;0.0;0.0;0.0;0.0;0.0;;170.0;3571.0;0.0;170.0;0.0;12.0;2017-10-31;;;;;43.2772038;5.4197831;13210;0301;132100301;H
102680;2021-03;13;13210;2021;90;2.0;AIC PROVENCE;48817152100021;0153I;0164I;0152I;1;2737.0;0.0;20.0;24.0;4.0;0.0;0.0;0.0;0.0;48.0;48.0;1.0;;0.0;1.0;0.0;0.0;0.0;0.0;0.0;0.0;0.0;0.0;;720.0;2985.0;0.0;720.0;0.0;12.0;2021-03-31;;;;;43.274029993114084;5.4142200320094105;13210;0301;132100301;H
328;2018-04;13;13210;2017;20;2.0;OPH/EPIC HABITAT MARSEILLE PROVENCE;39032862300025;0341R;0084R;0067R;2;25848.0;4.0;6.0;3.0;4.0;2.0;0.0;0.0;0.0;19.0;19.0;1.0;1.0;0.0;0.0;1.0;0.0;0.0;0.0;0.0;0.0;0.0;0.0;;24322.0;1183.0;0.0;0.0;0.0;7.0;2018-04-30;2018-04-20;;;;43.27441341346996;5.434736198179211;13210;0405;132100405;H
329;2018-04;13;13210;2017;20;2.0;OPH/EPIC HABITAT MARSEILLE PROVENCE;39032862300025;0341R;0084R;0067R;2;25848.0;1.0;8.0;11.0;4.0;0.0;0.0;0.0;0.0;24.0;24.0;6.0;1.0;0.0;0.0;1.0;0.0;0.0;0.0;0.0;0.0;0.0;0.0;;24322.0;1610.0;0.0;0.0;0.0;7.0;2018-04-30;2018-04-20;;;;43.27441341346996;5.434736198179211;13210;0405;132100405;H
14124;2017-05;13;13210;2017;32;2.0;MARSEILLE PRUD HOMMES;823767363;0164H;0130H;;1;2518.0;0.0;12.0;14.0;5.0;0.0;0.0;0.0;0.0;31.0;31.0;4.0;;0.0;1.0;0.0;0.0;0.0;0.0;0.0;0.0;0.0;0.0;;165.0;1834.0;0.0;165.0;0.0;12.0;2017-05-31;;;;;43.27706000920247;5.438050034194276;13210;0405;132100405;H
21628;2017-08;13;13210;2017;32;2.0;MARSEILLE PRUD HOMMES;823767363;0164H;0130H;;2;2518.0;0.0;12.0;14.0;5.0;0.0;0.0;0.0;0.0;31.0;31.0;4.0;1.0;0.0;1.0;0.0;0.0;0.0;0.0;0.0;0.0;0.0;0.0;;165.0;1834.0;0.0;165.0;0.0;12.0;2017-08-31;2017-08-03;;;;43.27706000920247;5.438050034194276;13210;0405;132100405;H
32479;2017-12;13;13210;2017;90;2.0;HABITAT MARSEILLE PROVENCE;39032862300025;0341R;0084R;0067R;1;25848.0;4.0;6.0;3.0;4.0;2.0;0.0;0.0;0.0;19.0;19.0;1.0;;0.0;0.0;1.0;0.0;0.0;0.0;0.0;0.0;0.0;0.0;;24322.0;1183.0;0.0;;0.0;7.0;;;;0.0;2017/12;43.27441341346996;5.434736198179211;13210;0405;132100405;H
32480;2017-12;13;13210;2017;90;2.0;HABITAT MARSEILLE PROVENCE;39032862300025;0341R;0084R;0067R;1;25848.0;1.0;8.0;11.0;4.0;0.0;0.0;0.0;0.0;24.0;24.0;6.0;;0.0;1.0;0.0;0.0;0.0;0.0;0.0;0.0;0.0;0.0;;24322.0;1610.0;0.0;;0.0;7.0;;;;0.0;2017/12;43.27441341346996;5.434736198179211;13210;0405;132100405;H
330;2018-04;13;13210;2018;90;2.0;SAS EASTPARK 2;813525979;0151D;0152D;0159D;1;17668.0;13.0;77.0;89.0;34.0;7.0;0.0;0.0;0.0;223.0;223.0;1.0;;0.0;1.0;0.0;0.0;0.0;0.0;0.0;0.0;0.0;0.0;;0.0;13950.0;0.0;0.0;0.0;7.0;2018-04-30;;;;;43.28180001735771;5.424019985564058;13210;0302;132100302;H
21627;2017-08;13;13210;2017;32;2.0;SCI 122 CAPELETTE;81506641000011;0005E;;;2;251.0;0.0;1.0;0.0;0.0;0.0;0.0;0.0;1.0;0.0;1.0;1.0;2.0;1.0;0.0;0.0;0.0;0.0;0.0;0.0;0.0;0.0;0.0;;286.0;0.0;0.0;6.0;0.0;12.0;2017-08-31;2017-08-16;;;;43.2799245;5.4166492;13210;0302;132100302;H
49943;2018-07;13;13210;2015;30;2.0;IMMO SAINT ANTOINE;79229944800011;0129B;0131B;0145B;3;2420.0;7.0;28.0;16.0;16.0;0.0;0.0;0.0;0.0;67.0;67.0;;1.0;0.0;1.0;0.0;0.0;0.0;0.0;0.0;0.0;0.0;0.0;;0.0;3991.0;0.0;0.0;0.0;14.0;2018-07-31;2016-05-19;2018-07-01;;;43.28111999355309;5.421900034612918;13210;0302;132100302;H
58114;2018-10;13;13210;2018;90;2.0;SAS EASTPARK 2;813525979;0151D;0152D;0159D;2;17668.0;13.0;77.0;89.0;34.0;7.0;0.0;0.0;0.0;223.0;223.0;1.0;1.0;0.0;1.0;0.0;0.0;0.0;0.0;0.0;0.0;0.0;0.0;;0.0;13950.0;0.0;0.0;0.0;7.0;2018-10-31;2018-10-25;;;;43.28180001735771;5.424019985564058;13210;0302;132100302;H
331;2018-04;13;13211;2017;90;2.0;;;0519P;;;2;900.0;0.0;2.0;2.0;2.0;0.0;0.0;0.0;0.0;6.0;6.0;1.0;1.0;0.0;0.0;1.0;0.0;0.0;0.0;0.0;0.0;0.0;0.0;;0.0;385.0;0.0;0.0;0.0;7.0;2018-04-30;2018-04-25;;;;43.30227998239096;5.5117200061267795;13211;0301;132110301;H
2792;2019-08;13;13211;2019;32;2.0;SCI HESTIA 19;84530463300017;0524H;;;2;1188.0;0.0;0.0;0.0;0.0;0.0;1.0;0.0;1.0;0.0;1.0;1.0;1.0;1.0;0.0;0.0;0.0;0.0;0.0;0.0;0.0;0.0;0.0;;0.0;270.0;0.0;0.0;0.0;5.0;2019-08-31;2019-08-08;;;;43.304830008794;5.520729965307169;13211;0301;132110301;H
7545;2017-02;13;13211;2016;32;2.0;SNC LE PARC D EOURES;81932674500018;0379B;0416B;0383B;2;5108.0;0.0;0.0;3.0;4.0;0.0;0.0;0.0;2.0;5.0;7.0;1.0;2.0;0.0;1.0;0.0;0.0;0.0;0.0;0.0;0.0;0.0;0.0;;460.0;0.0;460.0;0.0;460.0;12.0;2017-02-28;2017-02-03;;;;43.3049952;5.5168302;13211;0301;132110301;H
9613;2017-03;13;13211;2017;30;2.0;SCI JK ASSOCIES;;0120B;0078B;0118B;1;584.0;0.0;0.0;0.0;2.0;0.0;0.0;2.0;2.0;0.0;2.0;1.0;;1.0;0.0;0.0;0.0;0.0;0.0;0.0;0.0;0.0;0.0;;166.0;229.0;0.0;166.0;0.0;12.0;2017-03-31;;;;;43.30601998758783;5.5064399938594875;13211;0301;132110301;H
14126;2017-05;13;13211;2017;90;2.0;;;0120B;0078B;0118B;1;0.0;0.0;0.0;0.0;2.0;0.0;0.0;0.0;2.0;0.0;2.0;2.0;;1.0;0.0;0.0;0.0;0.0;0.0;0.0;0.0;0.0;0.0;;166.0;226.0;0.0;158.0;0.0;12.0;2017-05-31;;;;;43.30599999674877;5.506040009439943;13211;0301;132110301;H
16445;2017-06;13;13211;2015;32;2.0;SCCV 203 ROUTE DES CAMOINS MARSEILLE;82226755500016;0125P;0127P;0129P;3;3318.0;0.0;13.0;22.0;9.0;0.0;0.0;0.0;0.0;44.0;44.0;4.0;1.0;0.0;1.0;0.0;0.0;0.0;0.0;0.0;0.0;0.0;0.0;;177.0;2838.0;0.0;177.0;0.0;12.0;2017-06-30;2016-05-31;2017-04-24;;;43.30112998527528;5.506019976691363;13211;0301;132110301;H
16446;2017-06;13;13211;2017;90;2.0;;;0519P;;;1;900.0;0.0;2.0;2.0;2.0;0.0;0.0;0.0;0.0;6.0;6.0;1.0;;0.0;0.0;1.0;0.0;0.0;0.0;0.0;0.0;0.0;0.0;;0.0;385.0;0.0;0.0;0.0;7.0;2017-06-30;;;;;43.30227998239096;5.5117200061267795;13211;0301;132110301;H
16447;2017-06;13;13211;2017;90;2.0;;;0345D;;;1;1027.0;0.0;0.0;0.0;0.0;1.0;0.0;0.0;1.0;0.0;1.0;1.0;;1.0;0.0;0.0;0.0;0.0;0.0;0.0;0.0;0.0;0.0;;0.0;169.0;0.0;0.0;0.0;5.0;2017-06-30;;;;;43.30670964286646;5.51347362165808;13211;0301;132110301;H
16448;2017-06;13;13211;2017;90;2.0;;;0344D;;;1;1223.0;0.0;0.0;0.0;0.0;1.0;0.0;0.0;1.0;0.0;1.0;2.0;;1.0;0.0;0.0;0.0;0.0;0.0;0.0;0.0;0.0;0.0;;0.0;162.0;0.0;0.0;0.0;5.0;2017-06-30;;;;;43.30670964286646;5.51347362165808;13211;0301;132110301;H
60947;2018-11;13;13211;2018;90;2.0;PRO IMMO INVESTISSEMENTS;43453509200028;0115A;0117A;0034A;1;16023.0;0.0;0.0;7.0;6.0;11.0;0.0;0.0;24.0;0.0;24.0;1.0;;0.0;1.0;0.0;0.0;0.0;0.0;0.0;0.0;0.0;0.0;;370.0;2458.0;0.0;0.0;0.0;7.0;2018-11-30;;;;;43.30547998347575;5.505540028915533;13211;0301;132110301;H
66159;2019-01;13;13211;2019;90;2.0;PRO ECO BAT CONSTRUCTIONS;83465696900013;0673N;0675N;;1;813.0;0.0;0.0;0.0;2.0;0.0;0.0;0.0;2.0;0.0;2.0;1.0;;0.0;1.0;0.0;0.0;0.0;0.0;0.0;0.0;0.0;0.0;;0.0;136.0;0.0;0.0;0.0;7.0;2019-01-31;;;;;43.29675999623572;5.508839984195703;13211;0301;132110301;H
